{
  "type": "FeatureCollection",
  "features": [
    {
      "type": "Feature",
      "geometry": {
        "type": "Point",
        "coordinates": [
          120.9572739,
          23.4699871
        ]
      },
      "properties": {
        "osm_id": 3428095932,
        "name": "玉山",
        "name_en": "Yushan",
        "ele": 3952.0
      }
    },
    {
      "type": "Feature",
      "geometry": {
        "type": "Point",
        "coordinates": [
          121.2317965,
          24.383404
        ]
      },
      "properties": {
        "osm_id": 2101224904,
        "name": "雪山主峰",
        "name_en": "Xueshan",
        "ele": 3884.6
      }
    },
    {
      "type": "Feature",
      "geometry": {
        "type": "Point",
        "coordinates": [
          121.2311408,
          24.3875106
        ]
      },
      "properties": {
        "osm_id": 1520408114,
        "name": "北稜角",
        "name_en": "BeiLingJiao Mountain",
        "ele": 3882.0
      }
    },
    {
      "type": "Feature",
      "geometry": {
        "type": "Point",
        "coordinates": [
          120.9651927,
          23.4707431
        ]
      },
      "properties": {
        "osm_id": 625245738,
        "name": "玉山東峰",
        "name_en": "Yushan East Peak",
        "ele": 3869.0
      }
    },
    {
      "type": "Feature",
      "geometry": {
        "type": "Point",
        "coordinates": [
          120.9594971,
          23.4875704
        ]
      },
      "properties": {
        "osm_id": 625239452,
        "name": "玉山北峰",
        "name_en": "Yushan North Peak",
        "ele": 3858.0
      }
    },
    {
      "type": "Feature",
      "geometry": {
        "type": "Point",
        "coordinates": [
          120.9589514,
          23.4465941
        ]
      },
      "properties": {
        "osm_id": 625242828,
        "name": "玉山南峰",
        "name_en": "Yushan South Peak",
        "ele": 3844.0
      }
    },
    {
      "type": "Feature",
      "geometry": {
        "type": "Point",
        "coordinates": [
          120.9590214,
          23.4911079
        ]
      },
      "properties": {
        "osm_id": 3428095934,
        "name": "玉山北北峰",
        "name_en": "Yushan Far North Peak",
        "ele": 3833.0
      }
    },
    {
      "type": "Feature",
      "geometry": {
        "type": "Point",
        "coordinates": [
          121.057457,
          23.4968501
        ]
      },
      "properties": {
        "osm_id": 2482536203,
        "name": "秀姑巒山",
        "name_en": "Xiuguluanshan",
        "ele": 3829.2
      }
    },
    {
      "type": "Feature",
      "geometry": {
        "type": "Point",
        "coordinates": [
          120.9555861,
          23.4600599
        ]
      },
      "properties": {
        "osm_id": 5139581636,
        "name": "",
        "name_en": "",
        "ele": 3811.0
      }
    },
    {
      "type": "Feature",
      "geometry": {
        "type": "Point",
        "coordinates": [
          120.9553603,
          23.4485661
        ]
      },
      "properties": {
        "osm_id": 5287073973,
        "name": "玉山三叉峰",
        "name_en": "",
        "ele": 3807.0
      }
    },
    {
      "type": "Feature",
      "geometry": {
        "type": "Point",
        "coordinates": [
          121.0671084,
          23.5204009
        ]
      },
      "properties": {
        "osm_id": 5582288246,
        "name": "馬博拉斯山",
        "name_en": "Mabolasishan",
        "ele": 3776.3
      }
    },
    {
      "type": "Feature",
      "geometry": {
        "type": "Point",
        "coordinates": [
          120.9598159,
          23.4413909
        ]
      },
      "properties": {
        "osm_id": 5287073972,
        "name": "",
        "name_en": "",
        "ele": 3753.0
      }
    },
    {
      "type": "Feature",
      "geometry": {
        "type": "Point",
        "coordinates": [
          120.9532697,
          23.4577925
        ]
      },
      "properties": {
        "osm_id": 3428077866,
        "name": "玉山圓峰",
        "name_en": "Yushan Yuanfeng",
        "ele": 3752.0
      }
    },
    {
      "type": "Feature",
      "geometry": {
        "type": "Point",
        "coordinates": [
          121.4393767,
          24.361812
        ]
      },
      "properties": {
        "osm_id": 2268441044,
        "name": "南湖大山",
        "name_en": "Nanhudashan",
        "ele": 3740.9
      }
    },
    {
      "type": "Feature",
      "geometry": {
        "type": "Point",
        "coordinates": [
          121.2341307,
          24.3953394
        ]
      },
      "properties": {
        "osm_id": 2101225348,
        "name": "凱蘭特崑山",
        "name_en": "Kailantekunshan",
        "ele": 3729.0
      }
    },
    {
      "type": "Feature",
      "geometry": {
        "type": "Point",
        "coordinates": [
          120.963353,
          23.4390982
        ]
      },
      "properties": {
        "osm_id": 2482557258,
        "name": "東小南山",
        "name_en": "Dongxiaonanshan",
        "ele": 3707.9
      }
    },
    {
      "type": "Feature",
      "geometry": {
        "type": "Point",
        "coordinates": [
          121.2349845,
          24.39843
        ]
      },
      "properties": {
        "osm_id": 2101225418,
        "name": "凱蘭特崑山北峰",
        "name_en": "Kailantekunshan North Peak",
        "ele": 3707.0
      }
    },
    {
      "type": "Feature",
      "geometry": {
        "type": "Point",
        "coordinates": [
          121.240404,
          24.4147141
        ]
      },
      "properties": {
        "osm_id": 2268473329,
        "name": "雪山北峰",
        "name_en": "Xueshan North Peak",
        "ele": 3703.0
      }
    },
    {
      "type": "Feature",
      "geometry": {
        "type": "Point",
        "coordinates": [
          121.4162655,
          24.3102241
        ]
      },
      "properties": {
        "osm_id": 2268441042,
        "name": "中央尖山",
        "name_en": "Zhongyangjianshan",
        "ele": 3697.7
      }
    },
    {
      "type": "Feature",
      "geometry": {
        "type": "Point",
        "coordinates": [
          120.9117441,
          23.2281831
        ]
      },
      "properties": {
        "osm_id": 2268441054,
        "name": "關山",
        "name_en": "Guanshan",
        "ele": 3667.4
      }
    },
    {
      "type": "Feature",
      "geometry": {
        "type": "Point",
        "coordinates": [
          121.2457188,
          24.3887366
        ]
      },
      "properties": {
        "osm_id": 2101225157,
        "name": "甘木林山",
        "name_en": "GanMuLin Mountain",
        "ele": 3666.0
      }
    },
    {
      "type": "Feature",
      "geometry": {
        "type": "Point",
        "coordinates": [
          120.9710022,
          23.4686671
        ]
      },
      "properties": {
        "osm_id": 5139581634,
        "name": "",
        "name_en": "",
        "ele": 3662.0
      }
    },
    {
      "type": "Feature",
      "geometry": {
        "type": "Point",
        "coordinates": [
          120.9630212,
          23.463823
        ]
      },
      "properties": {
        "osm_id": 5139581635,
        "name": "",
        "name_en": "",
        "ele": 3652.0
      }
    },
    {
      "type": "Feature",
      "geometry": {
        "type": "Point",
        "coordinates": [
          121.0384772,
          23.4739767
        ]
      },
      "properties": {
        "osm_id": 4315785196,
        "name": "大水窟山",
        "name_en": "Dashuikushan",
        "ele": 3643.0
      }
    },
    {
      "type": "Feature",
      "geometry": {
        "type": "Point",
        "coordinates": [
          121.4508533,
          24.3655943
        ]
      },
      "properties": {
        "osm_id": 2486357959,
        "name": "南湖大山東峰",
        "name_en": "Nanhudashan East Peak",
        "ele": 3639.0
      }
    },
    {
      "type": "Feature",
      "geometry": {
        "type": "Point",
        "coordinates": [
          121.0477995,
          23.4817425
        ]
      },
      "properties": {
        "osm_id": 10047211782,
        "name": "大水窟山北峰",
        "name_en": "",
        "ele": 3631.0
      }
    },
    {
      "type": "Feature",
      "geometry": {
        "type": "Point",
        "coordinates": [
          121.4389957,
          24.3576791
        ]
      },
      "properties": {
        "osm_id": 13397643729,
        "name": "女王頭",
        "name_en": "Queen’s Head Boulder",
        "ele": 3630.0
      }
    },
    {
      "type": "Feature",
      "geometry": {
        "type": "Point",
        "coordinates": [
          121.2492707,
          24.4249595
        ]
      },
      "properties": {
        "osm_id": 2101226267,
        "name": "穆特勒布山",
        "name_en": "Mutelaba Shan",
        "ele": 3623.0
      }
    },
    {
      "type": "Feature",
      "geometry": {
        "type": "Point",
        "coordinates": [
          121.2419531,
          24.4177969
        ]
      },
      "properties": {
        "osm_id": 10068724632,
        "name": "雲達卡山",
        "name_en": "",
        "ele": 3619.0
      }
    },
    {
      "type": "Feature",
      "geometry": {
        "type": "Point",
        "coordinates": [
          121.0918666,
          23.6268066
        ]
      },
      "properties": {
        "osm_id": 660060601,
        "name": "東郡大山",
        "name_en": "Dongjudashan",
        "ele": 3617.0
      }
    },
    {
      "type": "Feature",
      "geometry": {
        "type": "Point",
        "coordinates": [
          121.3345459,
          24.1183377
        ]
      },
      "properties": {
        "osm_id": 2268441047,
        "name": "奇萊北峰",
        "name_en": "Qilaishan North Peak",
        "ele": 3605.6
      }
    },
    {
      "type": "Feature",
      "geometry": {
        "type": "Point",
        "coordinates": [
          120.9924466,
          23.2843613
        ]
      },
      "properties": {
        "osm_id": 2268473278,
        "name": "向陽山",
        "name_en": "Xiangyangshan",
        "ele": 3602.0
      }
    },
    {
      "type": "Feature",
      "geometry": {
        "type": "Point",
        "coordinates": [
          121.2005007,
          24.3409271
        ]
      },
      "properties": {
        "osm_id": 1529078482,
        "name": "大劍山",
        "name_en": "Dajianshan",
        "ele": 3593.3
      }
    },
    {
      "type": "Feature",
      "geometry": {
        "type": "Point",
        "coordinates": [
          121.4474301,
          24.3602755
        ]
      },
      "properties": {
        "osm_id": 2486357945,
        "name": "南湖大山中南峰",
        "name_en": "Nanhudashanzhongnanfeng",
        "ele": 3585.0
      }
    },
    {
      "type": "Feature",
      "geometry": {
        "type": "Point",
        "coordinates": [
          121.2153373,
          24.3792662
        ]
      },
      "properties": {
        "osm_id": 4081344423,
        "name": "翠池三叉山",
        "name_en": "Mt. Cuichi Sancha",
        "ele": 3585.0
      }
    },
    {
      "type": "Feature",
      "geometry": {
        "type": "Point",
        "coordinates": [
          120.9367986,
          23.441042
        ]
      },
      "properties": {
        "osm_id": 4555468286,
        "name": "玉山小南山",
        "name_en": "Yushanxiaonanshan",
        "ele": 3582.0
      }
    },
    {
      "type": "Feature",
      "geometry": {
        "type": "Point",
        "coordinates": [
          121.423602,
          24.3081738
        ]
      },
      "properties": {
        "osm_id": 4895227179,
        "name": "中央尖山東峰",
        "name_en": "Zhongyangjianshandongfeng",
        "ele": 3581.0
      }
    },
    {
      "type": "Feature",
      "geometry": {
        "type": "Point",
        "coordinates": [
          121.444964,
          24.364404
        ]
      },
      "properties": {
        "osm_id": 13399143800,
        "name": "南湖大山中峰",
        "name_en": "",
        "ele": 3574.0
      }
    },
    {
      "type": "Feature",
      "geometry": {
        "type": "Point",
        "coordinates": [
          121.4417124,
          24.3740058
        ]
      },
      "properties": {
        "osm_id": 2486357949,
        "name": "南湖大山北峰",
        "name_en": "Nanhudashanbeifeng",
        "ele": 3563.0
      }
    },
    {
      "type": "Feature",
      "geometry": {
        "type": "Point",
        "coordinates": [
          120.975793,
          23.3537891
        ]
      },
      "properties": {
        "osm_id": 5582288243,
        "name": "雲峰",
        "name_en": "Yunfeng",
        "ele": 3562.0
      }
    },
    {
      "type": "Feature",
      "geometry": {
        "type": "Point",
        "coordinates": [
          121.3232629,
          24.086458
        ]
      },
      "properties": {
        "osm_id": 2268473288,
        "name": "奇萊主山",
        "name_en": "Qilaishan",
        "ele": 3561.7
      }
    },
    {
      "type": "Feature",
      "geometry": {
        "type": "Point",
        "coordinates": [
          121.444743,
          24.3657307
        ]
      },
      "properties": {
        "osm_id": 13401422312,
        "name": "南湖中島山",
        "name_en": "",
        "ele": 3561.0
      }
    },
    {
      "type": "Feature",
      "geometry": {
        "type": "Point",
        "coordinates": [
          121.1171729,
          23.5215731
        ]
      },
      "properties": {
        "osm_id": 2482563184,
        "name": "馬利加南山",
        "name_en": "Malijiananshan",
        "ele": 3560.9
      }
    },
    {
      "type": "Feature",
      "geometry": {
        "type": "Point",
        "coordinates": [
          121.4467977,
          24.3759801
        ]
      },
      "properties": {
        "osm_id": 2486357952,
        "name": "南湖大山東北峰",
        "name_en": "Nanhudashandongbeifeng",
        "ele": 3557.0
      }
    },
    {
      "type": "Feature",
      "geometry": {
        "type": "Point",
        "coordinates": [
          121.4372559,
          24.3836701
        ]
      },
      "properties": {
        "osm_id": 2482550800,
        "name": "南湖北山",
        "name_en": "Nanhubeishan",
        "ele": 3534.2
      }
    },
    {
      "type": "Feature",
      "geometry": {
        "type": "Point",
        "coordinates": [
          121.0882829,
          23.6428141
        ]
      },
      "properties": {
        "osm_id": 4542480348,
        "name": "烏達佩山",
        "name_en": "Wudapeishan",
        "ele": 3533.0
      }
    },
    {
      "type": "Feature",
      "geometry": {
        "type": "Point",
        "coordinates": [
          121.4382918,
          24.3554181
        ]
      },
      "properties": {
        "osm_id": 13397643730,
        "name": "挖嘎奈大折立",
        "name_en": "Waganai-Ōritate",
        "ele": 3530.0
      }
    },
    {
      "type": "Feature",
      "geometry": {
        "type": "Point",
        "coordinates": [
          121.121194,
          24.3307752
        ]
      },
      "properties": {
        "osm_id": 2268441046,
        "name": "大雪山",
        "name_en": "Daxueshan",
        "ele": 3529.6
      }
    },
    {
      "type": "Feature",
      "geometry": {
        "type": "Point",
        "coordinates": [
          121.2667663,
          24.4283001
        ]
      },
      "properties": {
        "osm_id": 2101226634,
        "name": "品田山",
        "name_en": "Pintianshan",
        "ele": 3524.0
      }
    },
    {
      "type": "Feature",
      "geometry": {
        "type": "Point",
        "coordinates": [
          121.1174228,
          23.6232216
        ]
      },
      "properties": {
        "osm_id": 4542471426,
        "name": "可樂可樂安山",
        "name_en": "Kelekeleanshan",
        "ele": 3520.0
      }
    },
    {
      "type": "Feature",
      "geometry": {
        "type": "Point",
        "coordinates": [
          120.9828751,
          23.3532292
        ]
      },
      "properties": {
        "osm_id": 10088281385,
        "name": "雲峰中峰",
        "name_en": "",
        "ele": 3520.0
      }
    },
    {
      "type": "Feature",
      "geometry": {
        "type": "Point",
        "coordinates": [
          121.4600372,
          24.3590926
        ]
      },
      "properties": {
        "osm_id": 2486357982,
        "name": "陶塞峰",
        "name_en": "Taosaifeng",
        "ele": 3519.0
      }
    },
    {
      "type": "Feature",
      "geometry": {
        "type": "Point",
        "coordinates": [
          121.1373313,
          24.3546571
        ]
      },
      "properties": {
        "osm_id": 5593623073,
        "name": "奇峻山",
        "name_en": "Qijunshan",
        "ele": 3519.0
      }
    },
    {
      "type": "Feature",
      "geometry": {
        "type": "Point",
        "coordinates": [
          121.237262,
          24.3721721
        ]
      },
      "properties": {
        "osm_id": 4081344424,
        "name": "雪山南峰",
        "name_en": "South Peak of Xue Mountain",
        "ele": 3518.5
      }
    },
    {
      "type": "Feature",
      "geometry": {
        "type": "Point",
        "coordinates": [
          120.9337289,
          23.4718712
        ]
      },
      "properties": {
        "osm_id": 3355904061,
        "name": "玉山西峰",
        "name_en": "Yushan West Peak",
        "ele": 3518.0
      }
    },
    {
      "type": "Feature",
      "geometry": {
        "type": "Point",
        "coordinates": [
          121.2535538,
          24.4250998
        ]
      },
      "properties": {
        "osm_id": 2101226329,
        "name": "素密達山",
        "name_en": "Sumidashan",
        "ele": 3517.0
      }
    },
    {
      "type": "Feature",
      "geometry": {
        "type": "Point",
        "coordinates": [
          120.9607163,
          23.5001749
        ]
      },
      "properties": {
        "osm_id": 5287073969,
        "name": "",
        "name_en": "",
        "ele": 3512.0
      }
    },
    {
      "type": "Feature",
      "geometry": {
        "type": "Point",
        "coordinates": [
          121.1407231,
          24.3596281
        ]
      },
      "properties": {
        "osm_id": 2268473337,
        "name": "頭鷹山",
        "name_en": "Touyingshan",
        "ele": 3509.1
      }
    },
    {
      "type": "Feature",
      "geometry": {
        "type": "Point",
        "coordinates": [
          121.437198,
          24.3537047
        ]
      },
      "properties": {
        "osm_id": 13397643731,
        "name": "將達魯姆",
        "name_en": "Gendarme",
        "ele": 3508.0
      }
    },
    {
      "type": "Feature",
      "geometry": {
        "type": "Point",
        "coordinates": [
          121.4347602,
          24.3476988
        ]
      },
      "properties": {
        "osm_id": 2268473266,
        "name": "南湖大山南峰",
        "name_en": "Nanhudashan South Peak",
        "ele": 3505.0
      }
    },
    {
      "type": "Feature",
      "geometry": {
        "type": "Point",
        "coordinates": [
          121.0286649,
          23.2971931
        ]
      },
      "properties": {
        "osm_id": 660060600,
        "name": "三叉山",
        "name_en": "Sanchashan",
        "ele": 3495.0
      }
    },
    {
      "type": "Feature",
      "geometry": {
        "type": "Point",
        "coordinates": [
          121.0920619,
          23.514896
        ]
      },
      "properties": {
        "osm_id": 5291262617,
        "name": "馬利亞文路山",
        "name_en": "Maliyawenlushan",
        "ele": 3490.7
      }
    },
    {
      "type": "Feature",
      "geometry": {
        "type": "Point",
        "coordinates": [
          121.2579988,
          24.4577424
        ]
      },
      "properties": {
        "osm_id": 4705115484,
        "name": "大霸尖山",
        "name_en": "Dabajianshan",
        "ele": 3489.8
      }
    },
    {
      "type": "Feature",
      "geometry": {
        "type": "Point",
        "coordinates": [
          121.1057068,
          23.6287164
        ]
      },
      "properties": {
        "osm_id": 4542471421,
        "name": "郡東山",
        "name_en": "Jundongshan",
        "ele": 3489.0
      }
    },
    {
      "type": "Feature",
      "geometry": {
        "type": "Point",
        "coordinates": [
          121.4366816,
          24.3530086
        ]
      },
      "properties": {
        "osm_id": 13397643733,
        "name": "門衛",
        "name_en": "doorkeeper",
        "ele": 3483.0
      }
    },
    {
      "type": "Feature",
      "geometry": {
        "type": "Point",
        "coordinates": [
          121.0815666,
          23.6486504
        ]
      },
      "properties": {
        "osm_id": 4380267221,
        "name": "東巒大山",
        "name_en": "Dongluandashan",
        "ele": 3479.0
      }
    },
    {
      "type": "Feature",
      "geometry": {
        "type": "Point",
        "coordinates": [
          121.4649295,
          24.3558312
        ]
      },
      "properties": {
        "osm_id": 2486357955,
        "name": "南湖大山東南峰",
        "name_en": "Nanhudashandongnanfeng",
        "ele": 3478.0
      }
    },
    {
      "type": "Feature",
      "geometry": {
        "type": "Point",
        "coordinates": [
          121.205441,
          24.3572191
        ]
      },
      "properties": {
        "osm_id": 4081344425,
        "name": "雪山西南峰",
        "name_en": "Snow Mountain Southwest Peak",
        "ele": 3473.0
      }
    },
    {
      "type": "Feature",
      "geometry": {
        "type": "Point",
        "coordinates": [
          121.4379074,
          24.3540414
        ]
      },
      "properties": {
        "osm_id": 13399160032,
        "name": "ピラミッド",
        "name_en": "",
        "ele": 3471.0
      }
    },
    {
      "type": "Feature",
      "geometry": {
        "type": "Point",
        "coordinates": [
          121.4348472,
          24.3485915
        ]
      },
      "properties": {
        "osm_id": 13438012766,
        "name": "",
        "name_en": "",
        "ele": 3469.0
      }
    },
    {
      "type": "Feature",
      "geometry": {
        "type": "Point",
        "coordinates": [
          121.0974453,
          23.5217929
        ]
      },
      "properties": {
        "osm_id": 5291262616,
        "name": "馬里亞文路東峰",
        "name_en": "Maliyawenludongfeng",
        "ele": 3454.0
      }
    },
    {
      "type": "Feature",
      "geometry": {
        "type": "Point",
        "coordinates": [
          120.986913,
          23.3588721
        ]
      },
      "properties": {
        "osm_id": 10088281384,
        "name": "雲峰東峰",
        "name_en": "",
        "ele": 3454.0
      }
    },
    {
      "type": "Feature",
      "geometry": {
        "type": "Point",
        "coordinates": [
          121.2592056,
          24.4288907
        ]
      },
      "properties": {
        "osm_id": 4730831722,
        "name": "布秀蘭山",
        "name_en": "Buxiulanshan",
        "ele": 3451.7
      }
    },
    {
      "type": "Feature",
      "geometry": {
        "type": "Point",
        "coordinates": [
          121.384707,
          24.2553561
        ]
      },
      "properties": {
        "osm_id": 2268441051,
        "name": "無明山",
        "name_en": "Wumingshan",
        "ele": 3449.2
      }
    },
    {
      "type": "Feature",
      "geometry": {
        "type": "Point",
        "coordinates": [
          121.4378289,
          24.3423911
        ]
      },
      "properties": {
        "osm_id": 2482550844,
        "name": "巴巴山",
        "name_en": "Babashan",
        "ele": 3448.2
      }
    },
    {
      "type": "Feature",
      "geometry": {
        "type": "Point",
        "coordinates": [
          121.0857309,
          23.611404
        ]
      },
      "properties": {
        "osm_id": 5912767465,
        "name": "本鄉山",
        "name_en": "Benxiangshan",
        "ele": 3447.0
      }
    },
    {
      "type": "Feature",
      "geometry": {
        "type": "Point",
        "coordinates": [
          121.17397,
          23.483735
        ]
      },
      "properties": {
        "osm_id": 5582288252,
        "name": "馬西山",
        "name_en": "Maxishan",
        "ele": 3442.9
      }
    },
    {
      "type": "Feature",
      "geometry": {
        "type": "Point",
        "coordinates": [
          121.2692255,
          24.4275841
        ]
      },
      "properties": {
        "osm_id": 2101226508,
        "name": "品田山前峰",
        "name_en": "Pintianshanqianfeng",
        "ele": 3442.0
      }
    },
    {
      "type": "Feature",
      "geometry": {
        "type": "Point",
        "coordinates": [
          121.1247396,
          24.3421506
        ]
      },
      "properties": {
        "osm_id": 5593623072,
        "name": "大雪山北峰",
        "name_en": "Daxueshanbeifeng",
        "ele": 3441.0
      }
    },
    {
      "type": "Feature",
      "geometry": {
        "type": "Point",
        "coordinates": [
          121.050067,
          23.5240032
        ]
      },
      "properties": {
        "osm_id": 5291262618,
        "name": "駒盆南峰",
        "name_en": "Jupen South Peak",
        "ele": 3438.0
      }
    },
    {
      "type": "Feature",
      "geometry": {
        "type": "Point",
        "coordinates": [
          121.0824921,
          23.5907585
        ]
      },
      "properties": {
        "osm_id": 5902383566,
        "name": "櫧山",
        "name_en": "Zhushan",
        "ele": 3437.0
      }
    },
    {
      "type": "Feature",
      "geometry": {
        "type": "Point",
        "coordinates": [
          121.3234062,
          24.1001505
        ]
      },
      "properties": {
        "osm_id": 4388664480,
        "name": "奇萊池山",
        "name_en": "Qilaichishan",
        "ele": 3436.0
      }
    },
    {
      "type": "Feature",
      "geometry": {
        "type": "Point",
        "coordinates": [
          121.1142609,
          24.3287857
        ]
      },
      "properties": {
        "osm_id": 5913539035,
        "name": "匹匹達山",
        "name_en": "Pipidashan",
        "ele": 3436.0
      }
    },
    {
      "type": "Feature",
      "geometry": {
        "type": "Point",
        "coordinates": [
          121.0084789,
          23.2912957
        ]
      },
      "properties": {
        "osm_id": 5464448160,
        "name": "向陽山北峰",
        "name_en": "Xiangyangshanbeifeng",
        "ele": 3435.0
      }
    },
    {
      "type": "Feature",
      "geometry": {
        "type": "Point",
        "coordinates": [
          121.4357976,
          24.3508342
        ]
      },
      "properties": {
        "osm_id": 13397643735,
        "name": "王冠峰",
        "name_en": "Crown Peak",
        "ele": 3434.0
      }
    },
    {
      "type": "Feature",
      "geometry": {
        "type": "Point",
        "coordinates": [
          121.4363888,
          24.350854
        ]
      },
      "properties": {
        "osm_id": 13397643739,
        "name": "后宮之主",
        "name_en": "The Empress",
        "ele": 3427.0
      }
    },
    {
      "type": "Feature",
      "geometry": {
        "type": "Point",
        "coordinates": [
          121.4357539,
          24.3510204
        ]
      },
      "properties": {
        "osm_id": 13438012731,
        "name": "クラウンIII",
        "name_en": "",
        "ele": 3426.0
      }
    },
    {
      "type": "Feature",
      "geometry": {
        "type": "Point",
        "coordinates": [
          121.4358209,
          24.3503057
        ]
      },
      "properties": {
        "osm_id": 13397643736,
        "name": "巴比倫塔",
        "name_en": "Babylon Tower Pinnacle",
        "ele": 3424.0
      }
    },
    {
      "type": "Feature",
      "geometry": {
        "type": "Point",
        "coordinates": [
          120.9261127,
          23.2445155
        ]
      },
      "properties": {
        "osm_id": 9951937569,
        "name": "關山北峰",
        "name_en": "",
        "ele": 3423.0
      }
    },
    {
      "type": "Feature",
      "geometry": {
        "type": "Point",
        "coordinates": [
          121.2815943,
          24.1815125
        ]
      },
      "properties": {
        "osm_id": 800395557,
        "name": "合歡山北峰",
        "name_en": "Hehuanshan North Peak",
        "ele": 3421.8
      }
    },
    {
      "type": "Feature",
      "geometry": {
        "type": "Point",
        "coordinates": [
          121.4045047,
          24.3087316
        ]
      },
      "properties": {
        "osm_id": 4895314787,
        "name": "中央尖山西峰",
        "name_en": "Zhongyangjianshanxifeng",
        "ele": 3421.0
      }
    },
    {
      "type": "Feature",
      "geometry": {
        "type": "Point",
        "coordinates": [
          121.4361396,
          24.351459
        ]
      },
      "properties": {
        "osm_id": 13397643734,
        "name": "引路人",
        "name_en": "pathfinder",
        "ele": 3421.0
      }
    },
    {
      "type": "Feature",
      "geometry": {
        "type": "Point",
        "coordinates": [
          121.2521217,
          24.4555996
        ]
      },
      "properties": {
        "osm_id": 1529106726,
        "name": "小霸尖山",
        "name_en": "Xiaobajianshan",
        "ele": 3419.0
      }
    },
    {
      "type": "Feature",
      "geometry": {
        "type": "Point",
        "coordinates": [
          121.2811125,
          24.1356665
        ]
      },
      "properties": {
        "osm_id": 10839210243,
        "name": "合歡山東峰",
        "name_en": "Hehuanshan East Peak",
        "ele": 3419.0
      }
    },
    {
      "type": "Feature",
      "geometry": {
        "type": "Point",
        "coordinates": [
          121.146068,
          24.34213
        ]
      },
      "properties": {
        "osm_id": 9761572905,
        "name": "釜碗山西峰",
        "name_en": "",
        "ele": 3417.0
      }
    },
    {
      "type": "Feature",
      "geometry": {
        "type": "Point",
        "coordinates": [
          121.2711951,
          24.1426062
        ]
      },
      "properties": {
        "osm_id": 1660542386,
        "name": "合歡山",
        "name_en": "Hehuanshan",
        "ele": 3416.6
      }
    },
    {
      "type": "Feature",
      "geometry": {
        "type": "Point",
        "coordinates": [
          121.3158416,
          24.0782975
        ]
      },
      "properties": {
        "osm_id": 10088331384,
        "name": "卡羅樓山",
        "name_en": "",
        "ele": 3413.0
      }
    },
    {
      "type": "Feature",
      "geometry": {
        "type": "Point",
        "coordinates": [
          121.1303615,
          23.6086318
        ]
      },
      "properties": {
        "osm_id": 4542471427,
        "name": "天南可蘭山",
        "name_en": "Tiannankelanshan",
        "ele": 3412.0
      }
    },
    {
      "type": "Feature",
      "geometry": {
        "type": "Point",
        "coordinates": [
          121.2581239,
          24.4386948
        ]
      },
      "properties": {
        "osm_id": 4705115562,
        "name": "巴紗拉雲山",
        "name_en": "Bashalayunshan",
        "ele": 3407.0
      }
    },
    {
      "type": "Feature",
      "geometry": {
        "type": "Point",
        "coordinates": [
          121.33473,
          24.0838976
        ]
      },
      "properties": {
        "osm_id": 10047181002,
        "name": "奇萊主山東峰",
        "name_en": "",
        "ele": 3394.0
      }
    },
    {
      "type": "Feature",
      "geometry": {
        "type": "Point",
        "coordinates": [
          121.258017,
          24.4630764
        ]
      },
      "properties": {
        "osm_id": 9472192937,
        "name": "中霸坪",
        "name_en": "",
        "ele": 3392.0
      }
    },
    {
      "type": "Feature",
      "geometry": {
        "type": "Point",
        "coordinates": [
          121.2549649,
          24.4644737
        ]
      },
      "properties": {
        "osm_id": 10047281085,
        "name": "中霸尖山",
        "name_en": "",
        "ele": 3392.0
      }
    },
    {
      "type": "Feature",
      "geometry": {
        "type": "Point",
        "coordinates": [
          121.2742054,
          24.4272432
        ]
      },
      "properties": {
        "osm_id": 10839180143,
        "name": "新達山",
        "name_en": "",
        "ele": 3387.0
      }
    },
    {
      "type": "Feature",
      "geometry": {
        "type": "Point",
        "coordinates": [
          121.0519319,
          23.4508821
        ]
      },
      "properties": {
        "osm_id": 5582288242,
        "name": "南大水窟山",
        "name_en": "Nandashuikushan",
        "ele": 3385.4
      }
    },
    {
      "type": "Feature",
      "geometry": {
        "type": "Point",
        "coordinates": [
          121.3001493,
          24.0625243
        ]
      },
      "properties": {
        "osm_id": 10839281050,
        "name": "奇萊裡山",
        "name_en": "",
        "ele": 3385.0
      }
    },
    {
      "type": "Feature",
      "geometry": {
        "type": "Point",
        "coordinates": [
          120.9249381,
          23.4292361
        ]
      },
      "properties": {
        "osm_id": 2482536166,
        "name": "南玉山",
        "name_en": "Nanyushan",
        "ele": 3380.8
      }
    },
    {
      "type": "Feature",
      "geometry": {
        "type": "Point",
        "coordinates": [
          121.1349649,
          23.5146761
        ]
      },
      "properties": {
        "osm_id": 5291262615,
        "name": "塔比拉東山",
        "name_en": "Tabila East Peak",
        "ele": 3379.0
      }
    },
    {
      "type": "Feature",
      "geometry": {
        "type": "Point",
        "coordinates": [
          121.1569663,
          24.3598071
        ]
      },
      "properties": {
        "osm_id": 9472222227,
        "name": "弓水山",
        "name_en": "",
        "ele": 3374.0
      }
    },
    {
      "type": "Feature",
      "geometry": {
        "type": "Point",
        "coordinates": [
          121.3844732,
          24.2656537
        ]
      },
      "properties": {
        "osm_id": 10088331385,
        "name": "鬼門關峰",
        "name_en": "",
        "ele": 3374.0
      }
    },
    {
      "type": "Feature",
      "geometry": {
        "type": "Point",
        "coordinates": [
          121.3471869,
          24.2135771
        ]
      },
      "properties": {
        "osm_id": 2268473300,
        "name": "畢祿山",
        "name_en": "Bilushan",
        "ele": 3369.9
      }
    },
    {
      "type": "Feature",
      "geometry": {
        "type": "Point",
        "coordinates": [
          121.1158529,
          23.8345331
        ]
      },
      "properties": {
        "osm_id": 2482534740,
        "name": "卓社大山",
        "name_en": "Zhuoshedashan",
        "ele": 3368.0
      }
    },
    {
      "type": "Feature",
      "geometry": {
        "type": "Point",
        "coordinates": [
          121.1758534,
          23.4771458
        ]
      },
      "properties": {
        "osm_id": 5291262591,
        "name": "馬西山南峰",
        "name_en": "Maxishannanfeng",
        "ele": 3363.0
      }
    },
    {
      "type": "Feature",
      "geometry": {
        "type": "Point",
        "coordinates": [
          121.2720841,
          24.4576902
        ]
      },
      "properties": {
        "osm_id": 9472215878,
        "name": "東霸尖山",
        "name_en": "",
        "ele": 3363.0
      }
    },
    {
      "type": "Feature",
      "geometry": {
        "type": "Point",
        "coordinates": [
          121.3505558,
          24.2105008
        ]
      },
      "properties": {
        "osm_id": 9329121931,
        "name": "鋸山一峰",
        "name_en": "",
        "ele": 3361.0
      }
    },
    {
      "type": "Feature",
      "geometry": {
        "type": "Point",
        "coordinates": [
          121.3495195,
          24.2107548
        ]
      },
      "properties": {
        "osm_id": 9329121932,
        "name": "鋸山前峰",
        "name_en": "",
        "ele": 3358.0
      }
    },
    {
      "type": "Feature",
      "geometry": {
        "type": "Point",
        "coordinates": [
          121.279975,
          24.061299
        ]
      },
      "properties": {
        "osm_id": 2268473289,
        "name": "奇萊南峰",
        "name_en": "Qilaishan South Peak",
        "ele": 3357.3
      }
    },
    {
      "type": "Feature",
      "geometry": {
        "type": "Point",
        "coordinates": [
          121.0105795,
          23.3458858
        ]
      },
      "properties": {
        "osm_id": 5582288238,
        "name": "南雙頭山",
        "name_en": "Nanshuangtoushan",
        "ele": 3356.0
      }
    },
    {
      "type": "Feature",
      "geometry": {
        "type": "Point",
        "coordinates": [
          121.0151875,
          23.34637
        ]
      },
      "properties": {
        "osm_id": 11964484653,
        "name": "南雙頭山東峰",
        "name_en": "",
        "ele": 3353.0
      }
    },
    {
      "type": "Feature",
      "geometry": {
        "type": "Point",
        "coordinates": [
          121.0750078,
          23.5271698
        ]
      },
      "properties": {
        "osm_id": 10088364189,
        "name": "黃當擴山南風",
        "name_en": "",
        "ele": 3352.0
      }
    },
    {
      "type": "Feature",
      "geometry": {
        "type": "Point",
        "coordinates": [
          120.9815661,
          23.4792647
        ]
      },
      "properties": {
        "osm_id": 5287073967,
        "name": "",
        "name_en": "",
        "ele": 3351.0
      }
    },
    {
      "type": "Feature",
      "geometry": {
        "type": "Point",
        "coordinates": [
          121.351693,
          24.2106989
        ]
      },
      "properties": {
        "osm_id": 9329121929,
        "name": "鋸山二峰",
        "name_en": "",
        "ele": 3350.0
      }
    },
    {
      "type": "Feature",
      "geometry": {
        "type": "Point",
        "coordinates": [
          121.1381563,
          23.5952478
        ]
      },
      "properties": {
        "osm_id": 2482564158,
        "name": "裏門山",
        "name_en": "Limenshan",
        "ele": 3349.0
      }
    },
    {
      "type": "Feature",
      "geometry": {
        "type": "Point",
        "coordinates": [
          121.2781119,
          23.965366
        ]
      },
      "properties": {
        "osm_id": 2268473315,
        "name": "能高山南峰",
        "name_en": "Nenggaoshan South Peak",
        "ele": 3348.0
      }
    },
    {
      "type": "Feature",
      "geometry": {
        "type": "Point",
        "coordinates": [
          121.4387728,
          24.3917943
        ]
      },
      "properties": {
        "osm_id": 5588811542,
        "name": "巴都服山",
        "name_en": "Badoufushan",
        "ele": 3347.0
      }
    },
    {
      "type": "Feature",
      "geometry": {
        "type": "Point",
        "coordinates": [
          121.2481508,
          24.359968
        ]
      },
      "properties": {
        "osm_id": 12031256402,
        "name": "志佳陽大山",
        "name_en": "Zhijiayangdashan",
        "ele": 3346.0
      }
    },
    {
      "type": "Feature",
      "geometry": {
        "type": "Point",
        "coordinates": [
          121.1280895,
          23.314721
        ]
      },
      "properties": {
        "osm_id": 10111440968,
        "name": "天宮堡壘",
        "name_en": "",
        "ele": 3345.0
      }
    },
    {
      "type": "Feature",
      "geometry": {
        "type": "Point",
        "coordinates": [
          121.108957,
          24.2026781
        ]
      },
      "properties": {
        "osm_id": 2268441052,
        "name": "白姑大山",
        "name_en": "Baigudashan",
        "ele": 3341.3
      }
    },
    {
      "type": "Feature",
      "geometry": {
        "type": "Point",
        "coordinates": [
          121.3550245,
          24.2111164
        ]
      },
      "properties": {
        "osm_id": 7769688708,
        "name": "鋸山",
        "name_en": "Jushan",
        "ele": 3338.0
      }
    },
    {
      "type": "Feature",
      "geometry": {
        "type": "Point",
        "coordinates": [
          121.3578321,
          24.1099292
        ]
      },
      "properties": {
        "osm_id": 5113369851,
        "name": "磐石山西峰",
        "name_en": "Panshishanxifeng",
        "ele": 3337.0
      }
    },
    {
      "type": "Feature",
      "geometry": {
        "type": "Point",
        "coordinates": [
          121.1600366,
          23.46801
        ]
      },
      "properties": {
        "osm_id": 5291262590,
        "name": "布干山",
        "name_en": "Buganshan",
        "ele": 3337.0
      }
    },
    {
      "type": "Feature",
      "geometry": {
        "type": "Point",
        "coordinates": [
          121.0096019,
          23.4901972
        ]
      },
      "properties": {
        "osm_id": 2482563411,
        "name": "八通關山",
        "name_en": "Batongguanshan",
        "ele": 3331.2
      }
    },
    {
      "type": "Feature",
      "geometry": {
        "type": "Point",
        "coordinates": [
          121.1276177,
          23.3165854
        ]
      },
      "properties": {
        "osm_id": 2268473295,
        "name": "新康山",
        "name_en": "Xinkangshan",
        "ele": 3331.0
      }
    },
    {
      "type": "Feature",
      "geometry": {
        "type": "Point",
        "coordinates": [
          121.2134398,
          23.6004011
        ]
      },
      "properties": {
        "osm_id": 2482563185,
        "name": "丹大山",
        "name_en": "Dandashan",
        "ele": 3329.0
      }
    },
    {
      "type": "Feature",
      "geometry": {
        "type": "Point",
        "coordinates": [
          121.0316042,
          23.4931415
        ]
      },
      "properties": {
        "osm_id": 10839344602,
        "name": "巴奈伊克山",
        "name_en": "",
        "ele": 3328.0
      }
    },
    {
      "type": "Feature",
      "geometry": {
        "type": "Point",
        "coordinates": [
          121.1411491,
          23.5971227
        ]
      },
      "properties": {
        "osm_id": 4542480084,
        "name": "斷稜西山",
        "name_en": "Duanlengxishan",
        "ele": 3325.0
      }
    },
    {
      "type": "Feature",
      "geometry": {
        "type": "Point",
        "coordinates": [
          121.3048926,
          24.4326351
        ]
      },
      "properties": {
        "osm_id": 2268473297,
        "name": "桃山",
        "name_en": "Taoshan",
        "ele": 3323.5
      }
    },
    {
      "type": "Feature",
      "geometry": {
        "type": "Point",
        "coordinates": [
          121.3536089,
          24.2106131
        ]
      },
      "properties": {
        "osm_id": 9329121928,
        "name": "鋸山三峰",
        "name_en": "",
        "ele": 3322.0
      }
    },
    {
      "type": "Feature",
      "geometry": {
        "type": "Point",
        "coordinates": [
          121.1283231,
          23.6009289
        ]
      },
      "properties": {
        "osm_id": 4542480083,
        "name": "望崖山",
        "name_en": "Wangyashan",
        "ele": 3316.0
      }
    },
    {
      "type": "Feature",
      "geometry": {
        "type": "Point",
        "coordinates": [
          121.1879968,
          24.3066288
        ]
      },
      "properties": {
        "osm_id": 1529078940,
        "name": "佳陽山",
        "name_en": "Jiayangshan",
        "ele": 3314.0
      }
    },
    {
      "type": "Feature",
      "geometry": {
        "type": "Point",
        "coordinates": [
          121.2746355,
          24.0529831
        ]
      },
      "properties": {
        "osm_id": 10839281051,
        "name": "深堀山",
        "name_en": "",
        "ele": 3313.0
      }
    },
    {
      "type": "Feature",
      "geometry": {
        "type": "Point",
        "coordinates": [
          121.1751151,
          24.3819401
        ]
      },
      "properties": {
        "osm_id": 2482551619,
        "name": "火石山",
        "name_en": "Huoshishan",
        "ele": 3308.9
      }
    },
    {
      "type": "Feature",
      "geometry": {
        "type": "Point",
        "coordinates": [
          121.2052858,
          24.3220553
        ]
      },
      "properties": {
        "osm_id": 1529078484,
        "name": "油婆蘭山",
        "name_en": "YouPoLan Mountain",
        "ele": 3308.0
      }
    },
    {
      "type": "Feature",
      "geometry": {
        "type": "Point",
        "coordinates": [
          120.9377398,
          23.2450328
        ]
      },
      "properties": {
        "osm_id": 8862646893,
        "name": "鷹仔嘴山",
        "name_en": "",
        "ele": 3306.0
      }
    },
    {
      "type": "Feature",
      "geometry": {
        "type": "Point",
        "coordinates": [
          121.288154,
          24.4310981
        ]
      },
      "properties": {
        "osm_id": 1529104910,
        "name": "池有山",
        "name_en": "Chryou Shan",
        "ele": 3300.2
      }
    },
    {
      "type": "Feature",
      "geometry": {
        "type": "Point",
        "coordinates": [
          120.9725612,
          23.2818436
        ]
      },
      "properties": {
        "osm_id": 4107865647,
        "name": "魔保來山",
        "name_en": "",
        "ele": 3298.0
      }
    },
    {
      "type": "Feature",
      "geometry": {
        "type": "Point",
        "coordinates": [
          121.209101,
          24.3280977
        ]
      },
      "properties": {
        "osm_id": 9472149098,
        "name": "劍南尖山",
        "name_en": "",
        "ele": 3298.0
      }
    },
    {
      "type": "Feature",
      "geometry": {
        "type": "Point",
        "coordinates": [
          121.1474417,
          23.5946847
        ]
      },
      "properties": {
        "osm_id": 4542480085,
        "name": "斷稜東山",
        "name_en": "Duanlengdongshan",
        "ele": 3297.0
      }
    },
    {
      "type": "Feature",
      "geometry": {
        "type": "Point",
        "coordinates": [
          121.243612,
          24.4699811
        ]
      },
      "properties": {
        "osm_id": 1529090959,
        "name": "伊澤山",
        "name_en": "Yizeshan",
        "ele": 3296.3
      }
    },
    {
      "type": "Feature",
      "geometry": {
        "type": "Point",
        "coordinates": [
          121.1984681,
          24.3169499
        ]
      },
      "properties": {
        "osm_id": 1529078486,
        "name": "布佚奇寒山",
        "name_en": "BuYiQiHan Mountain",
        "ele": 3295.0
      }
    },
    {
      "type": "Feature",
      "geometry": {
        "type": "Point",
        "coordinates": [
          121.4327082,
          24.336423
        ]
      },
      "properties": {
        "osm_id": 10088361123,
        "name": "巴巴山南峰",
        "name_en": "",
        "ele": 3295.0
      }
    },
    {
      "type": "Feature",
      "geometry": {
        "type": "Point",
        "coordinates": [
          120.8741751,
          23.0511451
        ]
      },
      "properties": {
        "osm_id": 2268441043,
        "name": "卑南主山",
        "name_en": "Beinanzhushan",
        "ele": 3293.7
      }
    },
    {
      "type": "Feature",
      "geometry": {
        "type": "Point",
        "coordinates": [
          121.251334,
          24.3577807
        ]
      },
      "properties": {
        "osm_id": 3127657851,
        "name": "志佳陽大山基點",
        "name_en": "Zhijiayangdashanjidian",
        "ele": 3289.0
      }
    },
    {
      "type": "Feature",
      "geometry": {
        "type": "Point",
        "coordinates": [
          121.0196413,
          23.3502716
        ]
      },
      "properties": {
        "osm_id": 13783983065,
        "name": "",
        "name_en": "",
        "ele": 3288.0
      }
    },
    {
      "type": "Feature",
      "geometry": {
        "type": "Point",
        "coordinates": [
          121.2807277,
          24.1567143
        ]
      },
      "properties": {
        "osm_id": 2299317958,
        "name": "哈哈山",
        "name_en": "Hahashan",
        "ele": 3287.0
      }
    },
    {
      "type": "Feature",
      "geometry": {
        "type": "Point",
        "coordinates": [
          121.2808486,
          24.1558301
        ]
      },
      "properties": {
        "osm_id": 2299317959,
        "name": "南哈哈山",
        "name_en": "Nanhahashan",
        "ele": 3285.0
      }
    },
    {
      "type": "Feature",
      "geometry": {
        "type": "Point",
        "coordinates": [
          121.421001,
          24.0790711
        ]
      },
      "properties": {
        "osm_id": 2482534754,
        "name": "太魯閣大山",
        "name_en": "Tailugedashan",
        "ele": 3282.3
      }
    },
    {
      "type": "Feature",
      "geometry": {
        "type": "Point",
        "coordinates": [
          121.1389601,
          23.8760451
        ]
      },
      "properties": {
        "osm_id": 2482534753,
        "name": "干卓萬山",
        "name_en": "Ganzhuowanshan",
        "ele": 3281.8
      }
    },
    {
      "type": "Feature",
      "geometry": {
        "type": "Point",
        "coordinates": [
          121.2795568,
          24.1576049
        ]
      },
      "properties": {
        "osm_id": 2299317962,
        "name": "石門山北峰",
        "name_en": "Shimenshanbeifeng",
        "ele": 3280.0
      }
    },
    {
      "type": "Feature",
      "geometry": {
        "type": "Point",
        "coordinates": [
          120.9980804,
          23.3913576
        ]
      },
      "properties": {
        "osm_id": 5591528506,
        "name": "轆轆山",
        "name_en": "Lulushan",
        "ele": 3279.46
      }
    },
    {
      "type": "Feature",
      "geometry": {
        "type": "Point",
        "coordinates": [
          120.9625177,
          23.57733
        ]
      },
      "properties": {
        "osm_id": 2287592222,
        "name": "郡大山",
        "name_en": "Jundashan",
        "ele": 3277.6
      }
    },
    {
      "type": "Feature",
      "geometry": {
        "type": "Point",
        "coordinates": [
          121.1926092,
          23.4632113
        ]
      },
      "properties": {
        "osm_id": 2999412926,
        "name": "喀西帕南山",
        "name_en": "Kaxipananshan",
        "ele": 3276.0
      }
    },
    {
      "type": "Feature",
      "geometry": {
        "type": "Point",
        "coordinates": [
          121.1907536,
          23.4532861
        ]
      },
      "properties": {
        "osm_id": 8862646889,
        "name": "喀西帕南山南峰",
        "name_en": "",
        "ele": 3276.0
      }
    },
    {
      "type": "Feature",
      "geometry": {
        "type": "Point",
        "coordinates": [
          121.1951881,
          23.468869
        ]
      },
      "properties": {
        "osm_id": 8862646890,
        "name": "喀西帕南山北峰",
        "name_en": "Kaxipananshanbeifeng",
        "ele": 3276.0
      }
    },
    {
      "type": "Feature",
      "geometry": {
        "type": "Point",
        "coordinates": [
          121.1960432,
          23.579278
        ]
      },
      "properties": {
        "osm_id": 4380572864,
        "name": "內嶺爾山",
        "name_en": "Neilingershan",
        "ele": 3275.0
      }
    },
    {
      "type": "Feature",
      "geometry": {
        "type": "Point",
        "coordinates": [
          120.9684042,
          23.2777641
        ]
      },
      "properties": {
        "osm_id": 9472304551,
        "name": "溪頭山",
        "name_en": "",
        "ele": 3272.0
      }
    },
    {
      "type": "Feature",
      "geometry": {
        "type": "Point",
        "coordinates": [
          121.3516629,
          24.2443721
        ]
      },
      "properties": {
        "osm_id": 2482550973,
        "name": "鈴鳴山",
        "name_en": "Lingmingshan",
        "ele": 3271.2
      }
    },
    {
      "type": "Feature",
      "geometry": {
        "type": "Point",
        "coordinates": [
          121.3571583,
          24.2114757
        ]
      },
      "properties": {
        "osm_id": 9329121924,
        "name": "鋸山五峰",
        "name_en": "",
        "ele": 3271.0
      }
    },
    {
      "type": "Feature",
      "geometry": {
        "type": "Point",
        "coordinates": [
          121.1956661,
          24.3967611
        ]
      },
      "properties": {
        "osm_id": 4081344426,
        "name": "雪山西峰",
        "name_en": "Snow Mountain West Peak",
        "ele": 3264.3
      }
    },
    {
      "type": "Feature",
      "geometry": {
        "type": "Point",
        "coordinates": [
          121.1827969,
          23.5813811
        ]
      },
      "properties": {
        "osm_id": 4542480088,
        "name": "馬路巴拉讓山",
        "name_en": "Malubalarangshan",
        "ele": 3263.2
      }
    },
    {
      "type": "Feature",
      "geometry": {
        "type": "Point",
        "coordinates": [
          120.988065,
          23.3707191
        ]
      },
      "properties": {
        "osm_id": 8862646891,
        "name": "雲峰東北峰",
        "name_en": "Yunfengdongbeifeng",
        "ele": 3261.0
      }
    },
    {
      "type": "Feature",
      "geometry": {
        "type": "Point",
        "coordinates": [
          120.869305,
          23.060179
        ]
      },
      "properties": {
        "osm_id": 10050276180,
        "name": "卑南主山北峰",
        "name_en": "",
        "ele": 3261.0
      }
    },
    {
      "type": "Feature",
      "geometry": {
        "type": "Point",
        "coordinates": [
          121.2019924,
          24.3974152
        ]
      },
      "properties": {
        "osm_id": 10088361127,
        "name": "博可爾山",
        "name_en": "",
        "ele": 3261.0
      }
    },
    {
      "type": "Feature",
      "geometry": {
        "type": "Point",
        "coordinates": [
          121.260238,
          23.9923208
        ]
      },
      "properties": {
        "osm_id": 2268473312,
        "name": "能高山",
        "name_en": "Nenggaoshan",
        "ele": 3260.8
      }
    },
    {
      "type": "Feature",
      "geometry": {
        "type": "Point",
        "coordinates": [
          121.0828806,
          23.4838953
        ]
      },
      "properties": {
        "osm_id": 10047211783,
        "name": "太魯那斯山",
        "name_en": "",
        "ele": 3258.0
      }
    },
    {
      "type": "Feature",
      "geometry": {
        "type": "Point",
        "coordinates": [
          121.185509,
          23.8518821
        ]
      },
      "properties": {
        "osm_id": 2482548350,
        "name": "火山",
        "name_en": "Huoshan",
        "ele": 3257.0
      }
    },
    {
      "type": "Feature",
      "geometry": {
        "type": "Point",
        "coordinates": [
          121.1703157,
          24.2954923
        ]
      },
      "properties": {
        "osm_id": 1529078480,
        "name": "劍山",
        "name_en": "Jianshan",
        "ele": 3256.0
      }
    },
    {
      "type": "Feature",
      "geometry": {
        "type": "Point",
        "coordinates": [
          121.0593273,
          23.5914881
        ]
      },
      "properties": {
        "osm_id": 8862646894,
        "name": "無雙山最高峰",
        "name_en": "",
        "ele": 3254.0
      }
    },
    {
      "type": "Feature",
      "geometry": {
        "type": "Point",
        "coordinates": [
          121.1687833,
          23.8605668
        ]
      },
      "properties": {
        "osm_id": 10047434762,
        "name": "牧山東峰",
        "name_en": "",
        "ele": 3253.0
      }
    },
    {
      "type": "Feature",
      "geometry": {
        "type": "Point",
        "coordinates": [
          120.957005,
          23.5880544
        ]
      },
      "properties": {
        "osm_id": 2287592223,
        "name": "郡大山北峰",
        "name_en": "Jundashanbeifeng",
        "ele": 3252.0
      }
    },
    {
      "type": "Feature",
      "geometry": {
        "type": "Point",
        "coordinates": [
          121.1532605,
          23.5867171
        ]
      },
      "properties": {
        "osm_id": 4380572865,
        "name": "義西請馬至山",
        "name_en": "Yixiqingmazhishan",
        "ele": 3252.0
      }
    },
    {
      "type": "Feature",
      "geometry": {
        "type": "Point",
        "coordinates": [
          121.0937358,
          24.1906267
        ]
      },
      "properties": {
        "osm_id": 5529531158,
        "name": "白姑西峰",
        "name_en": "Baiguxifeng",
        "ele": 3252.0
      }
    },
    {
      "type": "Feature",
      "geometry": {
        "type": "Point",
        "coordinates": [
          121.1817473,
          23.4736103
        ]
      },
      "properties": {
        "osm_id": 5291262592,
        "name": "喀西帕南山北高坪",
        "name_en": "Kaxipananshanbeigaoping",
        "ele": 3250.0
      }
    },
    {
      "type": "Feature",
      "geometry": {
        "type": "Point",
        "coordinates": [
          120.876124,
          23.1516351
        ]
      },
      "properties": {
        "osm_id": 2482535952,
        "name": "小關山",
        "name_en": "Xiaoguanshan",
        "ele": 3248.1
      }
    },
    {
      "type": "Feature",
      "geometry": {
        "type": "Point",
        "coordinates": [
          121.3430149,
          24.1492329
        ]
      },
      "properties": {
        "osm_id": 2297213046,
        "name": "屏風山",
        "name_en": "Pingfengshan",
        "ele": 3247.5
      }
    },
    {
      "type": "Feature",
      "geometry": {
        "type": "Point",
        "coordinates": [
          121.3390194,
          24.1414005
        ]
      },
      "properties": {
        "osm_id": 2297213081,
        "name": "屏風山中鋒",
        "name_en": "",
        "ele": 3246.0
      }
    },
    {
      "type": "Feature",
      "geometry": {
        "type": "Point",
        "coordinates": [
          121.1464114,
          23.8480561
        ]
      },
      "properties": {
        "osm_id": 10047434796,
        "name": "卓社大山東峰",
        "name_en": "",
        "ele": 3245.0
      }
    },
    {
      "type": "Feature",
      "geometry": {
        "type": "Point",
        "coordinates": [
          121.1539383,
          23.8650995
        ]
      },
      "properties": {
        "osm_id": 10047434795,
        "name": "干卓萬山三叉峰",
        "name_en": "",
        "ele": 3244.0
      }
    },
    {
      "type": "Feature",
      "geometry": {
        "type": "Point",
        "coordinates": [
          121.0039323,
          23.4897137
        ]
      },
      "properties": {
        "osm_id": 10839344603,
        "name": "八通關山西峰",
        "name_en": "Batongguanshan",
        "ele": 3244.0
      }
    },
    {
      "type": "Feature",
      "geometry": {
        "type": "Point",
        "coordinates": [
          121.0571492,
          23.591011
        ]
      },
      "properties": {
        "osm_id": 2482564149,
        "name": "無雙山基點峰",
        "name_en": "Wushuangshan",
        "ele": 3242.8
      }
    },
    {
      "type": "Feature",
      "geometry": {
        "type": "Point",
        "coordinates": [
          121.1602091,
          23.8629019
        ]
      },
      "properties": {
        "osm_id": 2482548487,
        "name": "牧山",
        "name_en": "Mushan",
        "ele": 3239.3
      }
    },
    {
      "type": "Feature",
      "geometry": {
        "type": "Point",
        "coordinates": [
          120.9176632,
          23.4755783
        ]
      },
      "properties": {
        "osm_id": 625249201,
        "name": "玉山前峰",
        "name_en": "Yushan Front Peak",
        "ele": 3239.0
      }
    },
    {
      "type": "Feature",
      "geometry": {
        "type": "Point",
        "coordinates": [
          120.8954258,
          23.161629
        ]
      },
      "properties": {
        "osm_id": 8862646892,
        "name": "小關山北峰",
        "name_en": "Xiaoguanshanbeifeng",
        "ele": 3239.0
      }
    },
    {
      "type": "Feature",
      "geometry": {
        "type": "Point",
        "coordinates": [
          121.0606932,
          23.5913559
        ]
      },
      "properties": {
        "osm_id": 10088364187,
        "name": "無雙山東峰",
        "name_en": "",
        "ele": 3239.0
      }
    },
    {
      "type": "Feature",
      "geometry": {
        "type": "Point",
        "coordinates": [
          121.0961181,
          23.5304189
        ]
      },
      "properties": {
        "osm_id": 10050395698,
        "name": "馬利亞文路山北峰",
        "name_en": "",
        "ele": 3237.0
      }
    },
    {
      "type": "Feature",
      "geometry": {
        "type": "Point",
        "coordinates": [
          121.2845461,
          24.1524223
        ]
      },
      "properties": {
        "osm_id": 800396801,
        "name": "石門山",
        "name_en": "Shimenshan",
        "ele": 3235.9
      }
    },
    {
      "type": "Feature",
      "geometry": {
        "type": "Point",
        "coordinates": [
          120.9390643,
          23.2484156
        ]
      },
      "properties": {
        "osm_id": 10088281381,
        "name": "恐龍尖山",
        "name_en": "",
        "ele": 3234.0
      }
    },
    {
      "type": "Feature",
      "geometry": {
        "type": "Point",
        "coordinates": [
          121.3719871,
          24.2542944
        ]
      },
      "properties": {
        "osm_id": 8862646895,
        "name": "無明山西峰",
        "name_en": "Wumingshanxifeng",
        "ele": 3232.0
      }
    },
    {
      "type": "Feature",
      "geometry": {
        "type": "Point",
        "coordinates": [
          120.8650186,
          23.0619835
        ]
      },
      "properties": {
        "osm_id": 11964484655,
        "name": "卑南主山西北峰",
        "name_en": "",
        "ele": 3228.0
      }
    },
    {
      "type": "Feature",
      "geometry": {
        "type": "Point",
        "coordinates": [
          121.1684024,
          24.3618914
        ]
      },
      "properties": {
        "osm_id": 4572647436,
        "name": "大南山",
        "name_en": "DaNan Mountain",
        "ele": 3227.0
      }
    },
    {
      "type": "Feature",
      "geometry": {
        "type": "Point",
        "coordinates": [
          121.2523456,
          24.1760959
        ]
      },
      "properties": {
        "osm_id": 4613305890,
        "name": "",
        "name_en": "",
        "ele": 3227.0
      }
    },
    {
      "type": "Feature",
      "geometry": {
        "type": "Point",
        "coordinates": [
          120.9412445,
          23.2519395
        ]
      },
      "properties": {
        "osm_id": 2268473286,
        "name": "塔關山",
        "name_en": "Taguanshan",
        "ele": 3219.0
      }
    },
    {
      "type": "Feature",
      "geometry": {
        "type": "Point",
        "coordinates": [
          121.2689649,
          24.1242129
        ]
      },
      "properties": {
        "osm_id": 4381675831,
        "name": "合歡山南峰",
        "name_en": "Hehuanshan South Peak",
        "ele": 3218.4
      }
    },
    {
      "type": "Feature",
      "geometry": {
        "type": "Point",
        "coordinates": [
          121.2836037,
          24.1444094
        ]
      },
      "properties": {
        "osm_id": 3068496986,
        "name": "合歡尖山",
        "name_en": "Mount Hehuan",
        "ele": 3218.0
      }
    },
    {
      "type": "Feature",
      "geometry": {
        "type": "Point",
        "coordinates": [
          121.10724,
          24.1987576
        ]
      },
      "properties": {
        "osm_id": 5886009609,
        "name": "白姑大山三叉峰",
        "name_en": "Baigudashansanchafeng",
        "ele": 3216.0
      }
    },
    {
      "type": "Feature",
      "geometry": {
        "type": "Point",
        "coordinates": [
          121.1787009,
          23.5827071
        ]
      },
      "properties": {
        "osm_id": 2482563417,
        "name": "馬路巴拉讓山西峰",
        "name_en": "Malubalarangshanxifeng",
        "ele": 3212.5
      }
    },
    {
      "type": "Feature",
      "geometry": {
        "type": "Point",
        "coordinates": [
          121.4856375,
          24.3482252
        ]
      },
      "properties": {
        "osm_id": 2482550838,
        "name": "馬比杉山",
        "name_en": "Mabishanshan",
        "ele": 3211.0
      }
    },
    {
      "type": "Feature",
      "geometry": {
        "type": "Point",
        "coordinates": [
          121.1690522,
          24.2940521
        ]
      },
      "properties": {
        "osm_id": 13397937154,
        "name": "裏劍山;裏剣山",
        "name_en": "",
        "ele": 3211.0
      }
    },
    {
      "type": "Feature",
      "geometry": {
        "type": "Point",
        "coordinates": [
          121.0944115,
          23.5188879
        ]
      },
      "properties": {
        "osm_id": 8862646898,
        "name": "馬利亞文路山北峰",
        "name_en": "Maliyawenlushanbeifeng",
        "ele": 3210.0
      }
    },
    {
      "type": "Feature",
      "geometry": {
        "type": "Point",
        "coordinates": [
          121.0132027,
          23.4327284
        ]
      },
      "properties": {
        "osm_id": 4380698728,
        "name": "達芬尖山",
        "name_en": "Dafenjianshan",
        "ele": 3208.0
      }
    },
    {
      "type": "Feature",
      "geometry": {
        "type": "Point",
        "coordinates": [
          121.2523167,
          24.1513167
        ]
      },
      "properties": {
        "osm_id": 10047252736,
        "name": "合歡十字峰",
        "name_en": "",
        "ele": 3206.0
      }
    },
    {
      "type": "Feature",
      "geometry": {
        "type": "Point",
        "coordinates": [
          121.0682788,
          23.5469245
        ]
      },
      "properties": {
        "osm_id": 8862646899,
        "name": "黃當擴山",
        "name_en": "Huangdangkuoshan",
        "ele": 3203.0
      }
    },
    {
      "type": "Feature",
      "geometry": {
        "type": "Point",
        "coordinates": [
          121.3603276,
          24.2105891
        ]
      },
      "properties": {
        "osm_id": 9329121926,
        "name": "鋸山六峰",
        "name_en": "",
        "ele": 3203.0
      }
    },
    {
      "type": "Feature",
      "geometry": {
        "type": "Point",
        "coordinates": [
          121.2719622,
          24.3887322
        ]
      },
      "properties": {
        "osm_id": 2268473334,
        "name": "雪山東峰",
        "name_en": "Xueshan East Peak",
        "ele": 3199.0
      }
    },
    {
      "type": "Feature",
      "geometry": {
        "type": "Point",
        "coordinates": [
          121.2855159,
          24.041658
        ]
      },
      "properties": {
        "osm_id": 11939730573,
        "name": "",
        "name_en": "",
        "ele": 3198.3
      }
    },
    {
      "type": "Feature",
      "geometry": {
        "type": "Point",
        "coordinates": [
          121.3423128,
          24.223988
        ]
      },
      "properties": {
        "osm_id": 8862646901,
        "name": "北畢祿山",
        "name_en": "Beibilushan",
        "ele": 3197.0
      }
    },
    {
      "type": "Feature",
      "geometry": {
        "type": "Point",
        "coordinates": [
          121.1345422,
          24.3743435
        ]
      },
      "properties": {
        "osm_id": 8862646900,
        "name": "頭鷹山北峰",
        "name_en": "Touyingshanbeifeng",
        "ele": 3195.0
      }
    },
    {
      "type": "Feature",
      "geometry": {
        "type": "Point",
        "coordinates": [
          121.2313716,
          24.4668848
        ]
      },
      "properties": {
        "osm_id": 5582288273,
        "name": "耶巴奧山",
        "name_en": "Yebaaoshan",
        "ele": 3194.0
      }
    },
    {
      "type": "Feature",
      "geometry": {
        "type": "Point",
        "coordinates": [
          120.9632239,
          23.5730446
        ]
      },
      "properties": {
        "osm_id": 10683431696,
        "name": "郡大山南峰",
        "name_en": "",
        "ele": 3194.0
      }
    },
    {
      "type": "Feature",
      "geometry": {
        "type": "Point",
        "coordinates": [
          121.3148976,
          24.439559
        ]
      },
      "properties": {
        "osm_id": 2449034232,
        "name": "詩崙山",
        "name_en": "Shilunshan",
        "ele": 3193.0
      }
    },
    {
      "type": "Feature",
      "geometry": {
        "type": "Point",
        "coordinates": [
          121.3934537,
          24.2552525
        ]
      },
      "properties": {
        "osm_id": 8862646902,
        "name": "無明山東峰",
        "name_en": "Wumingshandongfeng",
        "ele": 3190.0
      }
    },
    {
      "type": "Feature",
      "geometry": {
        "type": "Point",
        "coordinates": [
          120.8798116,
          23.0350731
        ]
      },
      "properties": {
        "osm_id": 8862646904,
        "name": "卑南主山南峰",
        "name_en": "Beinanzhushannanfeng",
        "ele": 3185.0
      }
    },
    {
      "type": "Feature",
      "geometry": {
        "type": "Point",
        "coordinates": [
          121.3344883,
          24.1364267
        ]
      },
      "properties": {
        "osm_id": 4297379209,
        "name": "屏風山南峰",
        "name_en": "Mt Pingfeng South Peak",
        "ele": 3183.0
      }
    },
    {
      "type": "Feature",
      "geometry": {
        "type": "Point",
        "coordinates": [
          121.2002739,
          23.5960651
        ]
      },
      "properties": {
        "osm_id": 4542480290,
        "name": "盧利拉駱山",
        "name_en": "Lulilaluoshan",
        "ele": 3181.8
      }
    },
    {
      "type": "Feature",
      "geometry": {
        "type": "Point",
        "coordinates": [
          121.285931,
          24.0393451
        ]
      },
      "properties": {
        "osm_id": 2268473272,
        "name": "南華山",
        "name_en": "Nanhuashan",
        "ele": 3181.6
      }
    },
    {
      "type": "Feature",
      "geometry": {
        "type": "Point",
        "coordinates": [
          121.0182742,
          23.4922605
        ]
      },
      "properties": {
        "osm_id": 10088364186,
        "name": "八通關山東峰",
        "name_en": "",
        "ele": 3181.0
      }
    },
    {
      "type": "Feature",
      "geometry": {
        "type": "Point",
        "coordinates": [
          121.0753993,
          23.534089
        ]
      },
      "properties": {
        "osm_id": 8862646906,
        "name": "黃當擴山中峰",
        "name_en": "Huangdangkuoshanzhongfeng",
        "ele": 3179.0
      }
    },
    {
      "type": "Feature",
      "geometry": {
        "type": "Point",
        "coordinates": [
          120.9594825,
          23.2709936
        ]
      },
      "properties": {
        "osm_id": 2268473325,
        "name": "關山嶺山",
        "name_en": "Guanshanlingshan",
        "ele": 3176.0
      }
    },
    {
      "type": "Feature",
      "geometry": {
        "type": "Point",
        "coordinates": [
          120.911297,
          23.1855281
        ]
      },
      "properties": {
        "osm_id": 2482556810,
        "name": "海諾南山",
        "name_en": "Hainuonanshan",
        "ele": 3173.2
      }
    },
    {
      "type": "Feature",
      "geometry": {
        "type": "Point",
        "coordinates": [
          121.0780609,
          24.3364811
        ]
      },
      "properties": {
        "osm_id": 2268473258,
        "name": "中雪山",
        "name_en": "Zhongxueshan",
        "ele": 3172.4
      }
    },
    {
      "type": "Feature",
      "geometry": {
        "type": "Point",
        "coordinates": [
          121.0910921,
          24.1848464
        ]
      },
      "properties": {
        "osm_id": 8862646907,
        "name": "白姑大山西南峰",
        "name_en": "Baigudashanxinanfeng",
        "ele": 3172.0
      }
    },
    {
      "type": "Feature",
      "geometry": {
        "type": "Point",
        "coordinates": [
          121.309868,
          24.2587041
        ]
      },
      "properties": {
        "osm_id": 2268473322,
        "name": "閂山",
        "name_en": "Shuanshan",
        "ele": 3167.5
      }
    },
    {
      "type": "Feature",
      "geometry": {
        "type": "Point",
        "coordinates": [
          121.1951071,
          24.3141351
        ]
      },
      "properties": {
        "osm_id": 1529078483,
        "name": "3167峰",
        "name_en": "3167feng",
        "ele": 3167.0
      }
    },
    {
      "type": "Feature",
      "geometry": {
        "type": "Point",
        "coordinates": [
          121.1733298,
          23.4986603
        ]
      },
      "properties": {
        "osm_id": 8862646903,
        "name": "馬西山北峰",
        "name_en": "Maxishanbeifeng",
        "ele": 3167.0
      }
    },
    {
      "type": "Feature",
      "geometry": {
        "type": "Point",
        "coordinates": [
          121.0302398,
          23.4481291
        ]
      },
      "properties": {
        "osm_id": 10088281387,
        "name": "北面山",
        "name_en": "",
        "ele": 3167.0
      }
    },
    {
      "type": "Feature",
      "geometry": {
        "type": "Point",
        "coordinates": [
          121.4414609,
          24.400605
        ]
      },
      "properties": {
        "osm_id": 5588811541,
        "name": "拔都諾府山",
        "name_en": "Badounuofushan",
        "ele": 3166.7
      }
    },
    {
      "type": "Feature",
      "geometry": {
        "type": "Point",
        "coordinates": [
          121.1836496,
          23.4677736
        ]
      },
      "properties": {
        "osm_id": 5291262593,
        "name": "喀西帕南山西峰",
        "name_en": "Kaxipananshanxifeng",
        "ele": 3166.0
      }
    },
    {
      "type": "Feature",
      "geometry": {
        "type": "Point",
        "coordinates": [
          121.1738843,
          24.3687177
        ]
      },
      "properties": {
        "osm_id": 10088361124,
        "name": "大南山北峰",
        "name_en": "",
        "ele": 3166.0
      }
    },
    {
      "type": "Feature",
      "geometry": {
        "type": "Point",
        "coordinates": [
          121.3002599,
          24.1265696
        ]
      },
      "properties": {
        "osm_id": 4991437892,
        "name": "奇萊尖",
        "name_en": "Qilaijian",
        "ele": 3163.0
      }
    },
    {
      "type": "Feature",
      "geometry": {
        "type": "Point",
        "coordinates": [
          121.081328,
          24.3245431
        ]
      },
      "properties": {
        "osm_id": 7325886074,
        "name": "志摩山",
        "name_en": "Zhimoshan",
        "ele": 3161.8
      }
    },
    {
      "type": "Feature",
      "geometry": {
        "type": "Point",
        "coordinates": [
          121.0743286,
          23.30618
        ]
      },
      "properties": {
        "osm_id": 4145737538,
        "name": "連理山西峰",
        "name_en": "Lianlishanxifeng",
        "ele": 3161.0
      }
    },
    {
      "type": "Feature",
      "geometry": {
        "type": "Point",
        "coordinates": [
          121.3799904,
          24.2800316
        ]
      },
      "properties": {
        "osm_id": 8862646908,
        "name": "甘薯南峰",
        "name_en": "Ganshunanfeng",
        "ele": 3160.0
      }
    },
    {
      "type": "Feature",
      "geometry": {
        "type": "Point",
        "coordinates": [
          120.9645806,
          23.3678762
        ]
      },
      "properties": {
        "osm_id": 10775862273,
        "name": "雲峰西北峰",
        "name_en": "",
        "ele": 3159.0
      }
    },
    {
      "type": "Feature",
      "geometry": {
        "type": "Point",
        "coordinates": [
          121.1664485,
          24.383115
        ]
      },
      "properties": {
        "osm_id": 10088361125,
        "name": "火石山西峰",
        "name_en": "",
        "ele": 3158.0
      }
    },
    {
      "type": "Feature",
      "geometry": {
        "type": "Point",
        "coordinates": [
          121.3898579,
          24.2904781
        ]
      },
      "properties": {
        "osm_id": 2482550947,
        "name": "甘薯峰",
        "name_en": "Ganshufeng",
        "ele": 3157.1
      }
    },
    {
      "type": "Feature",
      "geometry": {
        "type": "Point",
        "coordinates": [
          121.1396996,
          23.6356018
        ]
      },
      "properties": {
        "osm_id": 10047302863,
        "name": "九華山西峰",
        "name_en": "",
        "ele": 3155.0
      }
    },
    {
      "type": "Feature",
      "geometry": {
        "type": "Point",
        "coordinates": [
          121.2953556,
          24.1322373
        ]
      },
      "properties": {
        "osm_id": 4267568231,
        "name": "小奇萊",
        "name_en": "Xiao Qilaishan",
        "ele": 3153.0
      }
    },
    {
      "type": "Feature",
      "geometry": {
        "type": "Point",
        "coordinates": [
          121.3707517,
          24.1048193
        ]
      },
      "properties": {
        "osm_id": 5113369853,
        "name": "磐石山中峰",
        "name_en": "Panshishanzhongfeng",
        "ele": 3149.0
      }
    },
    {
      "type": "Feature",
      "geometry": {
        "type": "Point",
        "coordinates": [
          121.2890066,
          24.133812
        ]
      },
      "properties": {
        "osm_id": 4267568232,
        "name": "",
        "name_en": "",
        "ele": 3147.0
      }
    },
    {
      "type": "Feature",
      "geometry": {
        "type": "Point",
        "coordinates": [
          121.24454,
          24.1776441
        ]
      },
      "properties": {
        "osm_id": 2268473318,
        "name": "合歡山西峰",
        "name_en": "Hehuanshan West Peak",
        "ele": 3144.1
      }
    },
    {
      "type": "Feature",
      "geometry": {
        "type": "Point",
        "coordinates": [
          121.2245359,
          23.6022963
        ]
      },
      "properties": {
        "osm_id": 4542480347,
        "name": "丹大山東峰",
        "name_en": "Dandashandongfeng",
        "ele": 3143.0
      }
    },
    {
      "type": "Feature",
      "geometry": {
        "type": "Point",
        "coordinates": [
          121.417492,
          24.3801643
        ]
      },
      "properties": {
        "osm_id": 2482550727,
        "name": "審馬陣山",
        "name_en": "Shenmazhenshan",
        "ele": 3139.9
      }
    },
    {
      "type": "Feature",
      "geometry": {
        "type": "Point",
        "coordinates": [
          121.1485589,
          23.6347177
        ]
      },
      "properties": {
        "osm_id": 9489286612,
        "name": "九華山主峰",
        "name_en": "",
        "ele": 3139.0
      }
    },
    {
      "type": "Feature",
      "geometry": {
        "type": "Point",
        "coordinates": [
          121.1420344,
          23.6169577
        ]
      },
      "properties": {
        "osm_id": 8862646896,
        "name": "紅崖山",
        "name_en": "Hongyashan",
        "ele": 3138.0
      }
    },
    {
      "type": "Feature",
      "geometry": {
        "type": "Point",
        "coordinates": [
          121.1033429,
          23.3120216
        ]
      },
      "properties": {
        "osm_id": 3066366835,
        "name": "連理山",
        "name_en": "Lianlishan",
        "ele": 3136.0
      }
    },
    {
      "type": "Feature",
      "geometry": {
        "type": "Point",
        "coordinates": [
          121.1731149,
          23.8710372
        ]
      },
      "properties": {
        "osm_id": 10047434794,
        "name": "干卓萬山東南峰",
        "name_en": "",
        "ele": 3135.0
      }
    },
    {
      "type": "Feature",
      "geometry": {
        "type": "Point",
        "coordinates": [
          121.3209121,
          24.4486341
        ]
      },
      "properties": {
        "osm_id": 11966482406,
        "name": "",
        "name_en": "",
        "ele": 3132.9
      }
    },
    {
      "type": "Feature",
      "geometry": {
        "type": "Point",
        "coordinates": [
          121.321218,
          24.4497761
        ]
      },
      "properties": {
        "osm_id": 2449034020,
        "name": "喀拉業山",
        "name_en": "Kalayeshan",
        "ele": 3132.5
      }
    },
    {
      "type": "Feature",
      "geometry": {
        "type": "Point",
        "coordinates": [
          121.117506,
          23.3208054
        ]
      },
      "properties": {
        "osm_id": 2482536102,
        "name": "新仙山",
        "name_en": "Xinxianshan",
        "ele": 3132.0
      }
    },
    {
      "type": "Feature",
      "geometry": {
        "type": "Point",
        "coordinates": [
          121.1895462,
          23.5950112
        ]
      },
      "properties": {
        "osm_id": 6990148648,
        "name": "盧利拉駱山西峰",
        "name_en": "Lulilaluoshanxifeng",
        "ele": 3132.0
      }
    },
    {
      "type": "Feature",
      "geometry": {
        "type": "Point",
        "coordinates": [
          121.1416975,
          23.6249542
        ]
      },
      "properties": {
        "osm_id": 8862646897,
        "name": "紅崖山北峰",
        "name_en": "Hongyashanbeifeng",
        "ele": 3131.0
      }
    },
    {
      "type": "Feature",
      "geometry": {
        "type": "Point",
        "coordinates": [
          121.3937625,
          24.1047217
        ]
      },
      "properties": {
        "osm_id": 5135442956,
        "name": "",
        "name_en": "",
        "ele": 3122.0
      }
    },
    {
      "type": "Feature",
      "geometry": {
        "type": "Point",
        "coordinates": [
          121.1210799,
          23.5365041
        ]
      },
      "properties": {
        "osm_id": 8862646910,
        "name": "馬利加南山北峰",
        "name_en": "",
        "ele": 3121.0
      }
    },
    {
      "type": "Feature",
      "geometry": {
        "type": "Point",
        "coordinates": [
          121.0407089,
          23.542556
        ]
      },
      "properties": {
        "osm_id": 8862646911,
        "name": "駒盆山中峰",
        "name_en": "Jupenshanzhongfeng",
        "ele": 3117.0
      }
    },
    {
      "type": "Feature",
      "geometry": {
        "type": "Point",
        "coordinates": [
          120.900024,
          23.2627391
        ]
      },
      "properties": {
        "osm_id": 2268473292,
        "name": "庫哈諾辛山",
        "name_en": "Kuhanuoxinshan",
        "ele": 3114.0
      }
    },
    {
      "type": "Feature",
      "geometry": {
        "type": "Point",
        "coordinates": [
          121.3397885,
          24.251225
        ]
      },
      "properties": {
        "osm_id": 4733167055,
        "name": "人待山",
        "name_en": "Rendaishan",
        "ele": 3114.0
      }
    },
    {
      "type": "Feature",
      "geometry": {
        "type": "Point",
        "coordinates": [
          121.4115001,
          24.0770195
        ]
      },
      "properties": {
        "osm_id": 8862646909,
        "name": "太魯閣大山西峰",
        "name_en": "Tailugedashanxifeng",
        "ele": 3113.0
      }
    },
    {
      "type": "Feature",
      "geometry": {
        "type": "Point",
        "coordinates": [
          121.2162003,
          24.4594767
        ]
      },
      "properties": {
        "osm_id": 1529108306,
        "name": "加利山",
        "name_en": "Jialishan",
        "ele": 3111.9
      }
    },
    {
      "type": "Feature",
      "geometry": {
        "type": "Point",
        "coordinates": [
          121.1367175,
          23.5735015
        ]
      },
      "properties": {
        "osm_id": 10839334671,
        "name": "裏門山南峰",
        "name_en": "",
        "ele": 3107.0
      }
    },
    {
      "type": "Feature",
      "geometry": {
        "type": "Point",
        "coordinates": [
          121.274865,
          23.9074809
        ]
      },
      "properties": {
        "osm_id": 2482547866,
        "name": "白石山",
        "name_en": "Baishishan",
        "ele": 3106.5
      }
    },
    {
      "type": "Feature",
      "geometry": {
        "type": "Point",
        "coordinates": [
          120.8604392,
          23.0486514
        ]
      },
      "properties": {
        "osm_id": 8862646905,
        "name": "卑南主山西峰",
        "name_en": "Beinanzhushanxifeng",
        "ele": 3106.0
      }
    },
    {
      "type": "Feature",
      "geometry": {
        "type": "Point",
        "coordinates": [
          121.086079,
          24.3173951
        ]
      },
      "properties": {
        "osm_id": 8862646913,
        "name": "知馬漢山北峰",
        "name_en": "Zhimahanshanbeifeng",
        "ele": 3105.3
      }
    },
    {
      "type": "Feature",
      "geometry": {
        "type": "Point",
        "coordinates": [
          121.388268,
          24.1047101
        ]
      },
      "properties": {
        "osm_id": 2482548966,
        "name": "磐石山",
        "name_en": "Panshishan",
        "ele": 3104.9
      }
    },
    {
      "type": "Feature",
      "geometry": {
        "type": "Point",
        "coordinates": [
          121.2703053,
          24.0068789
        ]
      },
      "properties": {
        "osm_id": 6098335070,
        "name": "卡賀爾山",
        "name_en": "Kaheershan",
        "ele": 3104.0
      }
    },
    {
      "type": "Feature",
      "geometry": {
        "type": "Point",
        "coordinates": [
          121.4665347,
          24.0994579
        ]
      },
      "properties": {
        "osm_id": 2482548965,
        "name": "帕托魯山",
        "name_en": "Patuolushan",
        "ele": 3102.1
      }
    },
    {
      "type": "Feature",
      "geometry": {
        "type": "Point",
        "coordinates": [
          120.7613809,
          22.627061
        ]
      },
      "properties": {
        "osm_id": 2299246284,
        "name": "北大武山",
        "name_en": "Beidawushan",
        "ele": 3089.1
      }
    },
    {
      "type": "Feature",
      "geometry": {
        "type": "Point",
        "coordinates": [
          121.4129717,
          24.0952427
        ]
      },
      "properties": {
        "osm_id": 5135442957,
        "name": "",
        "name_en": "",
        "ele": 3089.0
      }
    },
    {
      "type": "Feature",
      "geometry": {
        "type": "Point",
        "coordinates": [
          121.0030238,
          23.3830915
        ]
      },
      "properties": {
        "osm_id": 8862646914,
        "name": "轆轆山南峰",
        "name_en": "Lulushannanfeng",
        "ele": 3089.0
      }
    },
    {
      "type": "Feature",
      "geometry": {
        "type": "Point",
        "coordinates": [
          121.0725069,
          24.3229191
        ]
      },
      "properties": {
        "osm_id": 8862646912,
        "name": "志摩山西峰",
        "name_en": "Zhimoshanxifeng",
        "ele": 3087.4
      }
    },
    {
      "type": "Feature",
      "geometry": {
        "type": "Point",
        "coordinates": [
          121.2441704,
          24.156411
        ]
      },
      "properties": {
        "osm_id": 4605288094,
        "name": "巴魯莫安山",
        "name_en": "",
        "ele": 3087.0
      }
    },
    {
      "type": "Feature",
      "geometry": {
        "type": "Point",
        "coordinates": [
          121.0932617,
          24.3193251
        ]
      },
      "properties": {
        "osm_id": 8862646915,
        "name": "可汗山主峰",
        "name_en": "Kehanshanzhufeng",
        "ele": 3087.0
      }
    },
    {
      "type": "Feature",
      "geometry": {
        "type": "Point",
        "coordinates": [
          120.9472206,
          23.694012
        ]
      },
      "properties": {
        "osm_id": 2268441053,
        "name": "西巒大山",
        "name_en": "Xiluandashan",
        "ele": 3085.0
      }
    },
    {
      "type": "Feature",
      "geometry": {
        "type": "Point",
        "coordinates": [
          121.2846207,
          23.9067222
        ]
      },
      "properties": {
        "osm_id": 4117910582,
        "name": "東白石山",
        "name_en": "Dongbaishishan",
        "ele": 3084.0
      }
    },
    {
      "type": "Feature",
      "geometry": {
        "type": "Point",
        "coordinates": [
          121.2731015,
          23.9390826
        ]
      },
      "properties": {
        "osm_id": 4380698727,
        "name": "光頭山",
        "name_en": "Guangtoushan",
        "ele": 3077.0
      }
    },
    {
      "type": "Feature",
      "geometry": {
        "type": "Point",
        "coordinates": [
          121.3383181,
          24.2560101
        ]
      },
      "properties": {
        "osm_id": 4733167056,
        "name": "人待山北峰",
        "name_en": "Rendaishanbeifeng",
        "ele": 3074.0
      }
    },
    {
      "type": "Feature",
      "geometry": {
        "type": "Point",
        "coordinates": [
          121.4456341,
          24.124796
        ]
      },
      "properties": {
        "osm_id": 2482548914,
        "name": "立霧主山",
        "name_en": "Liwuzhushan",
        "ele": 3070.6
      }
    },
    {
      "type": "Feature",
      "geometry": {
        "type": "Point",
        "coordinates": [
          121.026812,
          23.4060111
        ]
      },
      "properties": {
        "osm_id": 5582288244,
        "name": "塔芬山",
        "name_en": "Dafenshan",
        "ele": 3068.8
      }
    },
    {
      "type": "Feature",
      "geometry": {
        "type": "Point",
        "coordinates": [
          121.2661139,
          23.8727074
        ]
      },
      "properties": {
        "osm_id": 2482523770,
        "name": "安東軍山",
        "name_en": "Andongjunshan",
        "ele": 3066.5
      }
    },
    {
      "type": "Feature",
      "geometry": {
        "type": "Point",
        "coordinates": [
          120.8982941,
          23.0500119
        ]
      },
      "properties": {
        "osm_id": 10088311788,
        "name": "卑南主山東峰",
        "name_en": "",
        "ele": 3062.0
      }
    },
    {
      "type": "Feature",
      "geometry": {
        "type": "Point",
        "coordinates": [
          121.1458049,
          23.5543451
        ]
      },
      "properties": {
        "osm_id": 2482575128,
        "name": "僕落西擴山",
        "name_en": "Puluoxikuoshan",
        "ele": 3061.2
      }
    },
    {
      "type": "Feature",
      "geometry": {
        "type": "Point",
        "coordinates": [
          121.0648176,
          23.612919
        ]
      },
      "properties": {
        "osm_id": 8862669317,
        "name": "本鄉山西峰",
        "name_en": "Benxiangshanxifeng",
        "ele": 3061.0
      }
    },
    {
      "type": "Feature",
      "geometry": {
        "type": "Point",
        "coordinates": [
          121.1065725,
          23.6434558
        ]
      },
      "properties": {
        "osm_id": 8862669318,
        "name": "郡北山",
        "name_en": "Junbeishan",
        "ele": 3061.0
      }
    },
    {
      "type": "Feature",
      "geometry": {
        "type": "Point",
        "coordinates": [
          121.3703441,
          24.2067001
        ]
      },
      "properties": {
        "osm_id": 7769688707,
        "name": "鋸山東峰",
        "name_en": "Jushandongfeng",
        "ele": 3060.0
      }
    },
    {
      "type": "Feature",
      "geometry": {
        "type": "Point",
        "coordinates": [
          121.0325857,
          23.3339645
        ]
      },
      "properties": {
        "osm_id": 11964484654,
        "name": "大分富士山",
        "name_en": "",
        "ele": 3060.0
      }
    },
    {
      "type": "Feature",
      "geometry": {
        "type": "Point",
        "coordinates": [
          121.2448311,
          23.5950242
        ]
      },
      "properties": {
        "osm_id": 3650935883,
        "name": "阿屘那來山",
        "name_en": "Amannalaishan",
        "ele": 3058.0
      }
    },
    {
      "type": "Feature",
      "geometry": {
        "type": "Point",
        "coordinates": [
          121.2242602,
          23.6336304
        ]
      },
      "properties": {
        "osm_id": 4542480302,
        "name": "大石公山",
        "name_en": "Dashigongshan",
        "ele": 3054.0
      }
    },
    {
      "type": "Feature",
      "geometry": {
        "type": "Point",
        "coordinates": [
          120.9640529,
          23.6464601
        ]
      },
      "properties": {
        "osm_id": 2482563180,
        "name": "清水山",
        "name_en": "Qingshuishan",
        "ele": 3051.8
      }
    },
    {
      "type": "Feature",
      "geometry": {
        "type": "Point",
        "coordinates": [
          121.1509362,
          23.8401415
        ]
      },
      "properties": {
        "osm_id": 11964484652,
        "name": "雙子山",
        "name_en": "",
        "ele": 3051.0
      }
    },
    {
      "type": "Feature",
      "geometry": {
        "type": "Point",
        "coordinates": [
          121.2451175,
          23.6107781
        ]
      },
      "properties": {
        "osm_id": 6990148647,
        "name": "阿拔仔山",
        "name_en": "Abazaishan",
        "ele": 3048.0
      }
    },
    {
      "type": "Feature",
      "geometry": {
        "type": "Point",
        "coordinates": [
          120.9389889,
          23.3543691
        ]
      },
      "properties": {
        "osm_id": 2482557181,
        "name": "玉德山",
        "name_en": "Yudeshan",
        "ele": 3045.25
      }
    },
    {
      "type": "Feature",
      "geometry": {
        "type": "Point",
        "coordinates": [
          121.0105638,
          23.4461685
        ]
      },
      "properties": {
        "osm_id": 8862669319,
        "name": "達芬尖山北峰",
        "name_en": "Dafenjianshanbeifeng",
        "ele": 3045.0
      }
    },
    {
      "type": "Feature",
      "geometry": {
        "type": "Point",
        "coordinates": [
          121.225462,
          24.4206251
        ]
      },
      "properties": {
        "osm_id": 4081344420,
        "name": "林專山",
        "name_en": "Linzhuanshan",
        "ele": 3044.6
      }
    },
    {
      "type": "Feature",
      "geometry": {
        "type": "Point",
        "coordinates": [
          121.130018,
          24.1970662
        ]
      },
      "properties": {
        "osm_id": 2298631722,
        "name": "白姑大山中峰",
        "name_en": "Baigudashanzhongfeng",
        "ele": 3044.0
      }
    },
    {
      "type": "Feature",
      "geometry": {
        "type": "Point",
        "coordinates": [
          121.2392179,
          23.693782
        ]
      },
      "properties": {
        "osm_id": 4542480304,
        "name": "關門北山",
        "name_en": "Guanmenbeishan",
        "ele": 3044.0
      }
    },
    {
      "type": "Feature",
      "geometry": {
        "type": "Point",
        "coordinates": [
          121.1429444,
          24.2061665
        ]
      },
      "properties": {
        "osm_id": 8862669322,
        "name": "白姑東南峰",
        "name_en": "Baigudongnanfeng",
        "ele": 3044.0
      }
    },
    {
      "type": "Feature",
      "geometry": {
        "type": "Point",
        "coordinates": [
          121.1533045,
          23.5717746
        ]
      },
      "properties": {
        "osm_id": 7459374320,
        "name": "烏妹浪胖山",
        "name_en": "Wumeilangpangshan",
        "ele": 3038.0
      }
    },
    {
      "type": "Feature",
      "geometry": {
        "type": "Point",
        "coordinates": [
          121.4212097,
          24.0922693
        ]
      },
      "properties": {
        "osm_id": 5135442958,
        "name": "",
        "name_en": "",
        "ele": 3037.0
      }
    },
    {
      "type": "Feature",
      "geometry": {
        "type": "Point",
        "coordinates": [
          121.0953798,
          24.3222732
        ]
      },
      "properties": {
        "osm_id": 10111423788,
        "name": "可汗山東峰",
        "name_en": "",
        "ele": 3034.0
      }
    },
    {
      "type": "Feature",
      "geometry": {
        "type": "Point",
        "coordinates": [
          121.3797299,
          24.2086897
        ]
      },
      "properties": {
        "osm_id": 2268473306,
        "name": "羊頭山",
        "name_en": "Yangtoushan",
        "ele": 3032.8
      }
    },
    {
      "type": "Feature",
      "geometry": {
        "type": "Point",
        "coordinates": [
          121.0324932,
          23.548379
        ]
      },
      "properties": {
        "osm_id": 5582288247,
        "name": "盆駒山",
        "name_en": "Penjushan",
        "ele": 3030.0
      }
    },
    {
      "type": "Feature",
      "geometry": {
        "type": "Point",
        "coordinates": [
          121.3488242,
          24.2027194
        ]
      },
      "properties": {
        "osm_id": 8862669320,
        "name": "畢祿山南峰",
        "name_en": "Bilushannanfeng",
        "ele": 3029.0
      }
    },
    {
      "type": "Feature",
      "geometry": {
        "type": "Point",
        "coordinates": [
          120.9672221,
          23.6394719
        ]
      },
      "properties": {
        "osm_id": 8862669324,
        "name": "清水山南峰",
        "name_en": "Qingshuishannanfeng",
        "ele": 3029.0
      }
    },
    {
      "type": "Feature",
      "geometry": {
        "type": "Point",
        "coordinates": [
          121.0181753,
          23.4001285
        ]
      },
      "properties": {
        "osm_id": 8862669323,
        "name": "塔芬山南峰",
        "name_en": "Tafenshannanfeng",
        "ele": 3027.0
      }
    },
    {
      "type": "Feature",
      "geometry": {
        "type": "Point",
        "coordinates": [
          121.3153204,
          23.9628906
        ]
      },
      "properties": {
        "osm_id": 2482549022,
        "name": "巴沙灣山",
        "name_en": "Bashawanshan",
        "ele": 3026.9
      }
    },
    {
      "type": "Feature",
      "geometry": {
        "type": "Point",
        "coordinates": [
          120.8891813,
          23.1103832
        ]
      },
      "properties": {
        "osm_id": 2482576120,
        "name": "馬西巴秀山",
        "name_en": "Maxibaxiushan",
        "ele": 3026.8
      }
    },
    {
      "type": "Feature",
      "geometry": {
        "type": "Point",
        "coordinates": [
          121.146382,
          23.534061
        ]
      },
      "properties": {
        "osm_id": 9472208096,
        "name": "烏可冬克山",
        "name_en": "",
        "ele": 3026.0
      }
    },
    {
      "type": "Feature",
      "geometry": {
        "type": "Point",
        "coordinates": [
          121.1973021,
          23.4806373
        ]
      },
      "properties": {
        "osm_id": 10050395786,
        "name": "喀西帕南山北峰",
        "name_en": "",
        "ele": 3023.0
      }
    },
    {
      "type": "Feature",
      "geometry": {
        "type": "Point",
        "coordinates": [
          121.2685962,
          23.8835801
        ]
      },
      "properties": {
        "osm_id": 10839281052,
        "name": "安東軍山北峰",
        "name_en": "",
        "ele": 3022.0
      }
    },
    {
      "type": "Feature",
      "geometry": {
        "type": "Point",
        "coordinates": [
          121.0787129,
          23.2331222
        ]
      },
      "properties": {
        "osm_id": 5582288251,
        "name": "布拉克桑山",
        "name_en": "Bulakesangshan",
        "ele": 3021.0
      }
    },
    {
      "type": "Feature",
      "geometry": {
        "type": "Point",
        "coordinates": [
          120.9443476,
          23.594112
        ]
      },
      "properties": {
        "osm_id": 2287592175,
        "name": "望鄉山",
        "name_en": "Wangxiangshan",
        "ele": 3018.0
      }
    },
    {
      "type": "Feature",
      "geometry": {
        "type": "Point",
        "coordinates": [
          121.2437778,
          23.6042284
        ]
      },
      "properties": {
        "osm_id": 3650937276,
        "name": "大理石峰",
        "name_en": "Dalishifeng",
        "ele": 3017.0
      }
    },
    {
      "type": "Feature",
      "geometry": {
        "type": "Point",
        "coordinates": [
          121.3076918,
          23.95903
        ]
      },
      "properties": {
        "osm_id": 12245091384,
        "name": "西巴沙灣山",
        "name_en": "",
        "ele": 3015.0
      }
    },
    {
      "type": "Feature",
      "geometry": {
        "type": "Point",
        "coordinates": [
          120.8878509,
          23.137035
        ]
      },
      "properties": {
        "osm_id": 4107882598,
        "name": "雲水山",
        "name_en": "",
        "ele": 3013.0
      }
    },