{"meta":{"generated":"2026-07-11T18:15:59+00:00","featureCount":717,"pointCount":717,"systems":["default"],"tileFallback":{"z13":708,"z12":9,"sea":0}},"systems":{"default":{"color":"#d9342b","points":[{"name":"華山分隊","type":"分隊","address":"臺北市中正區北平東路1號","lon":121.52082,"lat":25.04727,"elev":4},{"name":"忠孝分隊","type":"分隊","address":"臺北市中正區忠孝東路二段8號","lon":121.52707,"lat":25.04368,"elev":4},{"name":"泉州分隊","type":"分隊","address":"臺北市中正區泉州街40號","lon":121.51245,"lat":25.02461,"elev":9},{"name":"古亭分隊","type":"分隊","address":"臺北市大安區基隆路4段156號","lon":121.5376,"lat":25.01169,"elev":12},{"name":"城中分隊","type":"分隊","address":"臺北市中正區忠孝西路1段86號","lon":121.51344,"lat":25.04694,"elev":4},{"name":"雙園分隊","type":"分隊","address":"臺北市萬華區西藏路213-1號","lon":121.4955,"lat":25.02881,"elev":4},{"name":"龍山分隊","type":"分隊","address":"臺北市萬華區桂林路137號","lon":121.49933,"lat":25.03858,"elev":5},{"name":"萬芳分隊","type":"分隊","address":"臺北市文山區萬美街一段52號","lon":121.56645,"lat":25.00207,"elev":55},{"name":"景美分隊","type":"分隊","address":"臺北市文山區景文街30號","lon":121.54118,"lat":24.9923,"elev":13},{"name":"木柵分隊","type":"分隊","address":"臺北市文山區木柵路二段200號","lon":121.56341,"lat":24.98881,"elev":17},{"name":"寶橋分隊","type":"分隊","address":"臺北市文山區璋新街2號","lon":121.5549,"lat":24.9799,"elev":17},{"name":"金華分隊","type":"分隊","address":"臺北市大安區愛國東路79巷13號","lon":121.52775,"lat":25.0325,"elev":7},{"name":"安和分隊","type":"分隊","address":"臺北市大安區安和路二段2號","lon":121.55226,"lat":25.03291,"elev":8},{"name":"復興分隊","type":"分隊","address":"臺北市大安區復興南路二段92號","lon":121.54329,"lat":25.03006,"elev":8},{"name":"南港分隊","type":"分隊","address":"臺北市南港區興中路6號","lon":121.60727,"lat":25.05467,"elev":9},{"name":"舊莊分隊","type":"分隊","address":"臺北市南港區研究院路2段86號","lon":121.61529,"lat":25.04507,"elev":13},{"name":"成德分隊","type":"分隊","address":"臺北市南港區東新街63巷11號","lon":121.5867,"lat":25.0478,"elev":9},{"name":"信義分隊","type":"分隊","address":"臺北市信義區忠孝東路5段32號","lon":121.56875,"lat":25.04081,"elev":7},{"name":"永吉分隊","type":"分隊","address":"臺北市信義區永吉路48號","lon":121.56919,"lat":25.04553,"elev":6},{"name":"莊敬分隊","type":"分隊","address":"臺北市信義區松智路40號","lon":121.56522,"lat":25.0298,"elev":9},{"name":"大直分隊","type":"分隊","address":"臺北市中山區樂群二路143號","lon":121.5567,"lat":25.08001,"elev":6},{"name":"松江分隊","type":"分隊","address":"臺北市中山區建國北路二段39號","lon":121.53393,"lat":25.04751,"elev":5},{"name":"建國分隊","type":"分隊","address":"臺北市中山區民族東路282號","lon":121.53588,"lat":25.06783,"elev":3},{"name":"搜救犬訓練基地","type":"","address":"臺北市中山區濱江街351號","lon":121.54942,"lat":25.0725,"elev":5},{"name":"圓山分隊","type":"分隊","address":"臺北市中山區民族東路41號","lon":121.52918,"lat":25.06852,"elev":4},{"name":"八德分隊","type":"分隊","address":"臺北市松山區八德路四段162號","lon":121.56297,"lat":25.04854,"elev":5},{"name":"中崙分隊","type":"分隊","address":"臺北市松山區長安東路二段229號","lon":121.54584,"lat":25.04838,"elev":5},{"name":"東湖分隊","type":"分隊","address":"臺北市內湖區五分街8號","lon":121.61292,"lat":25.06747,"elev":10},{"name":"大湖分隊","type":"分隊","address":"臺北市內湖區成功路五段5號","lon":121.60165,"lat":25.08389,"elev":20},{"name":"內湖分隊","type":"分隊","address":"臺北市內湖區成功路二段378號","lon":121.59037,"lat":25.06951,"elev":8},{"name":"民權分隊","type":"分隊","address":"臺北市內湖區民權東路六段9號","lon":121.57771,"lat":25.06689,"elev":8},{"name":"建成分隊","type":"分隊","address":"臺北市大同區承德路二段35號","lon":121.51825,"lat":25.05475,"elev":2},{"name":"延平分隊","type":"分隊","address":"臺北市大同區鄭州路109號","lon":121.51137,"lat":25.05023,"elev":4},{"name":"大同分隊","type":"分隊","address":"臺北市大同區重慶北路二段223號","lon":121.51373,"lat":25.06147,"elev":3},{"name":"山仔后分隊","type":"分隊","address":"臺北市士林區仰德大道四段161號","lon":121.54567,"lat":25.13386,"elev":373},{"name":"天母分隊","type":"分隊","address":"臺北市士林區中山北路7段194號","lon":121.5329,"lat":25.12526,"elev":61},{"name":"福安分隊","type":"分隊","address":"臺北市士林區延平北路7段42-7號","lon":121.49669,"lat":25.09635,"elev":2},{"name":"社子分隊","type":"分隊","address":"臺北市士林區延平北路五段2-1號","lon":121.51149,"lat":25.0791,"elev":2},{"name":"劍潭分隊","type":"分隊","address":"臺北市士林區中山北路五段376號","lon":121.52765,"lat":25.08994,"elev":4},{"name":"雙溪分隊","type":"分隊","address":"臺北市士林區至善路二段41號","lon":121.54468,"lat":25.09762,"elev":12},{"name":"後港分隊","type":"分隊","address":"臺北市士林區福港街153號","lon":121.51805,"lat":25.08733,"elev":2},{"name":"陽明山分隊","type":"分隊","address":"臺北市北投區勝利街1-2號","lon":121.54664,"lat":25.15157,"elev":421},{"name":"光明分隊","type":"分隊","address":"臺北市北投區光明路155號","lon":121.50247,"lat":25.13515,"elev":15},{"name":"關渡分隊","type":"分隊","address":"臺北市北投區知行路345號","lon":121.46667,"lat":25.12306,"elev":6},{"name":"石牌分隊","type":"分隊","address":"臺北市北投區石牌路二段101號","lon":121.51691,"lat":25.11794,"elev":10},{"name":"秀山分隊","type":"分隊","address":"臺北市北投區秀山路50號","lon":121.4929,"lat":25.14528,"elev":33},{"name":"消防局局本部","type":"","address":"新北市板橋區南雅南路二段15號","lon":121.45393,"lat":25.00128,"elev":9},{"name":"第一救災救護大隊部","type":"大隊","address":"新北市板橋區華江七路56號","lon":121.46858,"lat":25.03507,"elev":7},{"name":"第一大隊-板橋中隊","type":"大隊","address":"新北市板橋區重慶路293號3樓","lon":121.46338,"lat":24.99912,"elev":12},{"name":"第一大隊-海山中隊","type":"大隊","address":"新北市板橋區民生路二段臨56-2號","lon":121.47217,"lat":25.0175,"elev":6},{"name":"第一大隊-莒光分隊","type":"大隊","address":"新北市板橋區華江七路56號","lon":121.46858,"lat":25.03507,"elev":7},{"name":"第一大隊-新板分隊","type":"大隊","address":"新北市板橋區民族路57號","lon":121.46486,"lat":25.00936,"elev":9},{"name":"第一大隊-板橋分隊","type":"大隊","address":"新北市板橋區重慶路293號","lon":121.46338,"lat":24.99912,"elev":12},{"name":"第一大隊-大觀分隊","type":"大隊","address":"新北市板橋區大觀路一段38巷臨1-3號","lon":121.44173,"lat":25.00467,"elev":8},{"name":"第一大隊-海山分隊","type":"大隊","address":"新北市板橋區英士路151號","lon":121.45995,"lat":25.02404,"elev":6},{"name":"第一大隊-民生分隊","type":"大隊","address":"新北市板橋區民生路二段臨56-2號","lon":121.47217,"lat":25.0175,"elev":6},{"name":"第一大隊-溪崑分隊","type":"大隊","address":"新北市板橋區篤行路二段135號","lon":121.43034,"lat":24.98871,"elev":11},{"name":"第二救災救護大隊部","type":"大隊","address":"新北市新莊區中正路170號5樓","lon":121.45099,"lat":25.03594,"elev":5},{"name":"第二大隊-新莊中隊","type":"大隊","address":"新北市新莊區中原路512號4樓","lon":121.44666,"lat":25.05488,"elev":3},{"name":"第二大隊-泰林中隊","type":"大隊","address":"新北市泰山區明志路二段188號3樓","lon":121.42739,"lat":25.05006,"elev":7},{"name":"第二大隊-五股中隊","type":"大隊","address":"新北市新莊區五工路97巷5號","lon":121.45675,"lat":25.06326,"elev":3},{"name":"第二大隊-五工分隊","type":"大隊","address":"新北市新莊區五工路97巷5號","lon":121.45675,"lat":25.06326,"elev":3},{"name":"第二大隊-裕民分隊","type":"大隊","address":"新北市新莊區裕民街136號","lon":121.41778,"lat":25.02189,"elev":9},{"name":"第二大隊-福營分隊","type":"大隊","address":"新北市新莊區福營路279號","lon":121.42762,"lat":25.02957,"elev":7},{"name":"第二大隊-新莊分隊","type":"大隊","address":"新北市新莊區中正路170號1樓","lon":121.41742,"lat":25.02659,"elev":11},{"name":"第二大隊-中港分隊","type":"大隊","address":"新北市新莊區中原路512號","lon":121.44668,"lat":25.05486,"elev":3},{"name":"第二大隊-頭前分隊","type":"大隊","address":"新北市新莊區幸福東路7號","lon":121.46699,"lat":25.04915,"elev":4},{"name":"第二大隊-五股分隊","type":"大隊","address":"新北市五股區工商路1號","lon":121.43982,"lat":25.08247,"elev":3},{"name":"第二大隊-更寮分隊","type":"大隊","address":"新北市五股區中興路二段83巷26-6號","lon":121.46166,"lat":25.07828,"elev":3},{"name":"第二大隊-泰山分隊","type":"大隊","address":"新北市泰山區明志路二段188號","lon":121.42739,"lat":25.05006,"elev":7},{"name":"第二大隊-林口分隊","type":"大隊","address":"新北市林口區西林里中山路137號","lon":121.38839,"lat":25.07882,"elev":242},{"name":"第二大隊-文化分隊","type":"大隊","address":"新北市林口區文化三路一段302號","lon":121.36288,"lat":25.06996,"elev":250},{"name":"第三救災救護大隊部","type":"大隊","address":"新北市蘆洲區長榮路792號6樓","lon":121.46143,"lat":25.09297,"elev":1},{"name":"第三大隊-三重中隊","type":"大隊","address":"新北市三重區光興街47號","lon":121.50097,"lat":25.06665,"elev":2},{"name":"第三大隊-蘆洲中隊","type":"大隊","address":"新北市蘆洲區中山一路415號5樓","lon":121.46915,"lat":25.07668,"elev":2},{"name":"第三大隊-淡水中隊","type":"大隊","address":"新北市淡水區中正東路一段125號","lon":121.43977,"lat":25.17509,"elev":32},{"name":"第三大隊-三重分隊","type":"大隊","address":"新北市三重區正義南路107號2樓","lon":121.50051,"lat":25.06016,"elev":3},{"name":"第三大隊-鷺江分隊","type":"大隊","address":"新北市蘆洲區長榮路792號","lon":121.46143,"lat":25.09297,"elev":1},{"name":"第三大隊-蘆洲分隊","type":"大隊","address":"新北市蘆洲區中山一路415號","lon":121.46903,"lat":25.0767,"elev":1},{"name":"第三大隊-重陽分隊","type":"大隊","address":"新北市三重區重陽路一段123號","lon":121.48711,"lat":25.06097,"elev":2},{"name":"第三大隊-二重分隊","type":"大隊","address":"新北市三重區中興北街225號","lon":121.46911,"lat":25.05857,"elev":4},{"name":"第三大隊-八里分隊","type":"大隊","address":"新北市八里區中山路二段76號","lon":121.40817,"lat":25.15583,"elev":7},{"name":"第三大隊-龍源分隊","type":"大隊","address":"新北市八里區龍源里龍米路一段225號","lon":121.45136,"lat":25.13235,"elev":6},{"name":"第三大隊-淡水分隊","type":"大隊","address":"新北市淡水區新生街29號","lon":121.43965,"lat":25.17517,"elev":31},{"name":"第三大隊-竹圍分隊","type":"大隊","address":"新北市淡水區中正東路一段125號","lon":121.45996,"lat":25.13822,"elev":5},{"name":"第三大隊-三芝分隊","type":"大隊","address":"新北市三芝區埔頭里中山路一段10號","lon":121.50062,"lat":25.25854,"elev":59},{"name":"第三大隊-滬尾分隊","type":"大隊","address":"新北市淡水區中正路207號","lon":121.43742,"lat":25.17197,"elev":3},{"name":"第四救災救護大隊部","type":"大隊","address":"新北市新店區北新路一段98號5樓","lon":121.5422,"lat":24.96911,"elev":19},{"name":"第四大隊-新店中隊","type":"大隊","address":"新北市新店區安康路三段2號4樓","lon":121.49371,"lat":24.95408,"elev":33},{"name":"第四大隊-文山中隊","type":"大隊","address":"新北市深坑區文山路一段35號4樓","lon":121.6281,"lat":25.00289,"elev":52},{"name":"第四大隊-深坑分隊","type":"大隊","address":"新北市深坑區文山路一段35號1樓","lon":121.62811,"lat":25.00265,"elev":51},{"name":"第四大隊-新店分隊","type":"大隊","address":"新北市新店區北新路一段98號","lon":121.5422,"lat":24.96911,"elev":19},{"name":"第四大隊-直潭分隊","type":"大隊","address":"新北市新店區直潭十街25號","lon":121.53431,"lat":24.93859,"elev":31},{"name":"第四大隊-安康分隊","type":"大隊","address":"新北市新店區安康路三段2號","lon":121.49374,"lat":24.95382,"elev":30},{"name":"第四大隊-安和分隊","type":"大隊","address":"新北市新店區安和路三段3號","lon":121.51713,"lat":24.98028,"elev":19},{"name":"第四大隊-石碇分隊","type":"大隊","address":"新北市石碇區碇坪路一段81號","lon":121.66095,"lat":24.99123,"elev":109},{"name":"第四大隊-坪林分隊","type":"大隊","address":"新北市坪林區坪碇路6號2樓","lon":121.71255,"lat":24.93667,"elev":189},{"name":"第四大隊-雪山分隊","type":"大隊","address":"新北市坪林區坪雙路一段56號","lon":121.71132,"lat":24.9406,"elev":211},{"name":"第四大隊-烏來分隊","type":"大隊","address":"新北市烏來區烏來里環山路51號","lon":121.54858,"lat":24.86396,"elev":187},{"name":"第五救災救護大隊部","type":"大隊","address":"新北市三峽區隆恩街249號4樓","lon":121.35706,"lat":24.94075,"elev":46},{"name":"第五大隊-三鶯中隊","type":"大隊","address":"新北市三峽區隆恩街247號3樓","lon":121.35734,"lat":24.9407,"elev":46},{"name":"第五大隊-樹林中隊","type":"大隊","address":"新北市樹林區環漢路五段50號4樓","lon":121.42167,"lat":24.97454,"elev":15},{"name":"第五大隊-土城中隊","type":"大隊","address":"新北市土城區金城路一段90號3樓","lon":121.44513,"lat":24.97333,"elev":16},{"name":"第五大隊-三峽分隊","type":"大隊","address":"新北市三峽區中正路一段46號","lon":121.37535,"lat":24.93064,"elev":35},{"name":"第五大隊-隆恩分隊","type":"大隊","address":"新北市三峽區隆恩街247號","lon":121.35734,"lat":24.9407,"elev":46},{"name":"第五大隊-土城分隊","type":"大隊","address":"新北市土城區金城路一段90號","lon":121.44502,"lat":24.9736,"elev":16},{"name":"第五大隊-清水分隊","type":"大隊","address":"新北市土城區青雲路35號","lon":121.4602,"lat":24.98876,"elev":13},{"name":"第五大隊-頂埔分隊","type":"大隊","address":"新北市土城區中山路49號","lon":121.43174,"lat":24.96573,"elev":21},{"name":"第五大隊-樹林分隊","type":"大隊","address":"新北市樹林區環漢路五段50號","lon":121.42167,"lat":24.97454,"elev":15},{"name":"第五大隊-樹潭分隊","type":"大隊","address":"新北市樹林區俊保路160號","lon":121.4209,"lat":25.00724,"elev":8},{"name":"第五大隊-柑園分隊","type":"大隊","address":"新北市樹林區柑園街一段60號","lon":121.40294,"lat":24.96045,"elev":24},{"name":"第五大隊-鶯歌分隊","type":"大隊","address":"新北市鶯歌區建國路420號","lon":121.3429,"lat":24.95215,"elev":55},{"name":"第五大隊-鳳鳴分隊","type":"大隊","address":"新北市鶯歌區鳳鳴路162號","lon":121.33467,"lat":24.96711,"elev":104},{"name":"第六救災救護大隊部","type":"大隊","address":"新北市汐止區福德一路236號6樓","lon":121.63377,"lat":25.06485,"elev":13},{"name":"第六大隊-瑞芳中隊","type":"大隊","address":"新北市瑞芳區中正路30號2樓","lon":121.80759,"lat":25.10733,"elev":53},{"name":"第六大隊-金山中隊","type":"大隊","address":"新北市金山區南勢54號","lon":121.62819,"lat":25.22096,"elev":10},{"name":"第六大隊-汐止中隊","type":"大隊","address":"新北市汐止區忠孝東路1-1號","lon":121.657,"lat":25.06412,"elev":12},{"name":"第六大隊-社后分隊","type":"大隊","address":"新北市汐止區福德一路236號","lon":121.63377,"lat":25.06485,"elev":13},{"name":"第六大隊-汐止分隊","type":"大隊","address":"新北市汐止區大同路三段469號","lon":121.67953,"lat":25.0713,"elev":32},{"name":"第六大隊-長青分隊","type":"大隊","address":"新北市汐止區永春一路4號","lon":121.6035,"lat":25.11305,"elev":374},{"name":"第六大隊-橫科分隊","type":"大隊","address":"新北市汐止區橫科路119號","lon":121.62015,"lat":25.05052,"elev":12},{"name":"第六大隊-瑞芳分隊","type":"大隊","address":"新北市瑞芳區中正路30號","lon":121.8074,"lat":25.10747,"elev":53},{"name":"第六大隊-瑞亭分隊","type":"大隊","address":"新北市瑞芳區大埔路176號","lon":121.7622,"lat":25.1023,"elev":38},{"name":"第六大隊-九份分隊","type":"大隊","address":"新北市瑞芳區崙頂路1-5號","lon":121.84682,"lat":25.10736,"elev":355},{"name":"第六大隊-金山分隊","type":"大隊","address":"新北市金山區南勢54號","lon":121.62819,"lat":25.22096,"elev":10},{"name":"第六大隊-石門分隊","type":"大隊","address":"新北市石門區中山路64-1號","lon":121.56784,"lat":25.29428,"elev":3},{"name":"第六大隊-萬里分隊","type":"大隊","address":"新北市萬里區瑪鋉路223號","lon":121.68904,"lat":25.18061,"elev":7},{"name":"第六大隊-雙溪分隊","type":"大隊","address":"新北市雙溪區外平林1-1號","lon":121.86096,"lat":25.03888,"elev":39},{"name":"第六大隊-貢寮分隊","type":"大隊","address":"新北市貢寮區朝陽街58號","lon":121.90974,"lat":25.02214,"elev":17},{"name":"第六大隊-平溪分隊","type":"大隊","address":"新北市平溪區靜安路二段289號","lon":121.73252,"lat":25.02323,"elev":213},{"name":"第六大隊-保長分隊","type":"大隊","address":"新北市汐止區大同路三段469號","lon":121.67953,"lat":25.0713,"elev":32},{"name":"第七救災救護大隊部","type":"大隊","address":"新北市中和區中山路二段64巷11號4樓","lon":121.5033,"lat":25.00555,"elev":7},{"name":"第七大隊-中和中隊","type":"大隊","address":"新北市中和區中山路二段64巷11號","lon":121.50322,"lat":25.00555,"elev":7},{"name":"第七大隊-永和中隊","type":"大隊","address":"新北市永和區永利路72-1號4樓","lon":121.52012,"lat":25.00427,"elev":8},{"name":"第七大隊-永和分隊","type":"大隊","address":"新北市永和區警光街1-1號","lon":121.51988,"lat":25.0095,"elev":8},{"name":"第七大隊-永利分隊","type":"大隊","address":"新北市永和區永利路72-1號","lon":121.52014,"lat":25.00452,"elev":8},{"name":"第七大隊-永平分隊","type":"大隊","address":"新北市永和區環河西路二段177-1號1樓","lon":121.50513,"lat":25.01347,"elev":6},{"name":"第七大隊-中和分隊","type":"大隊","address":"新北市中和區中山路二段64巷11號1樓","lon":121.5033,"lat":25.00555,"elev":7},{"name":"第七大隊-員山分隊","type":"大隊","address":"新北市中和區中正路1163號","lon":121.48161,"lat":25.00911,"elev":8},{"name":"第七大隊-南勢分隊","type":"大隊","address":"新北市中和區南山路236號","lon":121.5066,"lat":24.98982,"elev":10},{"name":"第七大隊-國光分隊","type":"大隊","address":"新北市中和區莒光路170號","lon":121.47282,"lat":25.00068,"elev":10},{"name":"第七大隊-秀山分隊","type":"大隊","address":"新北市中和區景平路1號","lon":121.52548,"lat":24.99023,"elev":15},{"name":"特搜大隊部","type":"大隊","address":"新北市板橋區南雅南路二段15號","lon":121.45393,"lat":25.00128,"elev":9},{"name":"特搜大隊-南雅分隊","type":"大隊","address":"新北市板橋區南雅南路二段15號","lon":121.45393,"lat":25.00128,"elev":9},{"name":"特搜大隊-慈福分隊","type":"大隊","address":"新北市三重區溪尾街301號","lon":121.48761,"lat":25.08371,"elev":2},{"name":"特搜大隊-德音分隊","type":"大隊","address":"新北市五股區明德路8號","lon":121.43344,"lat":25.07144,"elev":10},{"name":"特搜大隊-秀峰分隊","type":"大隊","address":"新北市汐止區忠孝東路1-1號","lon":121.65703,"lat":25.06413,"elev":12},{"name":"特搜大隊-大埔分隊","type":"大隊","address":"新北市三峽區中正路二段492號","lon":121.36245,"lat":24.90697,"elev":66},{"name":"車輛保養中心","type":"","address":"新北市三峽區隆恩街249號4樓","lon":121.35734,"lat":24.9407,"elev":46},{"name":"第一救災救護大隊","type":"大隊","address":"桃園市桃園區力行路280號","lon":121.29799,"lat":24.99976,"elev":91},{"name":"桃園分隊","type":"分隊","address":"桃園市桃園區力行路280號","lon":121.29799,"lat":24.99976,"elev":91},{"name":"大林分隊","type":"分隊","address":"桃園市桃園區樹仁二街39號","lon":121.3208,"lat":24.97784,"elev":103},{"name":"中路分隊","type":"分隊","address":"桃園市桃園區國豐六街96號","lon":121.27793,"lat":24.98987,"elev":99},{"name":"八德分隊","type":"分隊","address":"桃園市八德區介壽路2段685巷10號","lon":121.29845,"lat":24.93924,"elev":137},{"name":"大湳分隊","type":"分隊","address":"桃園市八德區建國路1133號","lon":121.29693,"lat":24.95711,"elev":124},{"name":"龜山分隊","type":"分隊","address":"桃園市龜山區萬壽路2段639號","lon":121.34633,"lat":24.99923,"elev":119},{"name":"坪頂分隊","type":"分隊","address":"桃園市龜山區復興三路80號","lon":121.37219,"lat":25.05085,"elev":249},{"name":"迴龍分隊","type":"分隊","address":"桃園市龜山區萬壽路1段42號","lon":121.40892,"lat":25.01978,"elev":20},{"name":"茄苳分隊","type":"分隊","address":"桃園市八德區茄苳路950號","lon":121.27889,"lat":24.96554,"elev":116},{"name":"三民分隊","type":"分隊","address":"桃園市桃園區三民路3段26號","lon":121.30681,"lat":24.99801,"elev":94},{"name":"大有分隊","type":"分隊","address":"桃園市桃園區民有十街88號","lon":121.32185,"lat":25.01048,"elev":106},{"name":"第二救災救護大隊","type":"大隊","address":"桃園市中壢區義民路120號","lon":121.21553,"lat":24.95324,"elev":134},{"name":"中壢分隊","type":"分隊","address":"桃園市中壢區義民路120號","lon":121.21553,"lat":24.95324,"elev":134},{"name":"興國分隊","type":"分隊","address":"桃園市中壢區中豐路88號","lon":121.21979,"lat":24.96231,"elev":126},{"name":"內壢分隊","type":"分隊","address":"桃園市中壢區吉林路62號","lon":121.24815,"lat":24.98031,"elev":114},{"name":"龍岡分隊","type":"分隊","address":"桃園市中壢區龍岡路3段754號","lon":121.24353,"lat":24.92581,"elev":168},{"name":"華勛分隊","type":"分隊","address":"桃園市中壢區榮民南路800號","lon":121.25621,"lat":24.94014,"elev":157},{"name":"楊梅分隊","type":"分隊","address":"桃園市楊梅區新農街245巷20號","lon":121.15254,"lat":24.91066,"elev":167},{"name":"幼獅分隊","type":"分隊","address":"桃園市楊梅區幼獅路1段456號","lon":121.17541,"lat":24.92601,"elev":204},{"name":"富岡分隊","type":"分隊","address":"桃園市楊梅區員本里12鄰員德路20號","lon":121.08901,"lat":24.93626,"elev":104},{"name":"埔心分隊","type":"分隊","address":"桃園市楊梅區五守街150號","lon":121.18699,"lat":24.91128,"elev":195},{"name":"新屋分隊","type":"分隊","address":"桃園市新屋區中華路436號","lon":121.10648,"lat":24.9765,"elev":82},{"name":"永安分隊","type":"分隊","address":"桃園市新屋區永安里濱海路永安段251巷51號","lon":121.01905,"lat":24.99171,"elev":4},{"name":"青埔分隊","type":"分隊","address":"桃園市中壢區青埔路1段69號","lon":121.21063,"lat":25.01382,"elev":79},{"name":"第三救災救護大隊","type":"大隊","address":"桃園市蘆竹區錦溪路119號","lon":121.28905,"lat":25.05491,"elev":51},{"name":"大園分隊","type":"分隊","address":"桃園市大園區和平二街5號","lon":121.20113,"lat":25.06142,"elev":27},{"name":"蘆竹分隊","type":"分隊","address":"桃園市蘆竹區錦溪路119號","lon":121.28905,"lat":25.05491,"elev":51},{"name":"大竹分隊","type":"分隊","address":"桃園市蘆竹區上興路188號","lon":121.26097,"lat":25.01893,"elev":72},{"name":"山腳分隊","type":"分隊","address":"桃園市蘆竹區山外路119號","lon":121.2887,"lat":25.08305,"elev":45},{"name":"觀音分隊","type":"分隊","address":"桃園市觀音區廣興一路118號","lon":121.08656,"lat":25.03185,"elev":24},{"name":"新坡分隊","type":"分隊","address":"桃園市觀音區中山路2段670號","lon":121.13631,"lat":25.01256,"elev":71},{"name":"草漯分隊","type":"分隊","address":"桃園市觀音區工業五路1號","lon":121.1179,"lat":25.05276,"elev":26},{"name":"竹圍分隊","type":"分隊","address":"桃園市大園區竹圍里11鄰海方厝33之23號","lon":121.24067,"lat":25.10016,"elev":12},{"name":"第四救災救護大隊","type":"大隊","address":"桃園市龍潭區中興路726號","lon":121.22142,"lat":24.86997,"elev":229},{"name":"平鎮分隊","type":"分隊","address":"桃園市平鎮區中豐路南勢2段174號","lon":121.20994,"lat":24.91444,"elev":168},{"name":"復旦分隊","type":"分隊","address":"桃園市平鎮區復旦路2段133號","lon":121.2025,"lat":24.94759,"elev":145},{"name":"山峰分隊","type":"分隊","address":"桃園市平鎮區南豐路263號","lon":121.20397,"lat":24.89965,"elev":209},{"name":"龍潭分隊","type":"分隊","address":"桃園市龍潭區中興路726號","lon":121.22142,"lat":24.86997,"elev":229},{"name":"高平分隊","type":"分隊","address":"桃園市龍潭區渴望二路99巷15號","lon":121.18384,"lat":24.84187,"elev":297},{"name":"大溪分隊","type":"分隊","address":"桃園市大溪區月湖路36號","lon":121.28697,"lat":24.88911,"elev":85},{"name":"圳頂分隊","type":"分隊","address":"桃園市大溪區介壽路740號","lon":121.28458,"lat":24.90472,"elev":165},{"name":"復興分隊","type":"分隊","address":"桃園市復興區澤仁里中山路2號","lon":121.35072,"lat":24.81422,"elev":437},{"name":"巴陵分隊","type":"分隊","address":"桃園市復興區華陵里7鄰巴崚26號","lon":121.38419,"lat":24.67811,"elev":584},{"name":"特搜大隊","type":"大隊","address":"桃園市桃園區三民路3段26號","lon":121.30681,"lat":24.99801,"elev":94},{"name":"第一搜救救助分隊","type":"分隊","address":"桃園市桃園區三民路3段26號","lon":121.30681,"lat":24.99801,"elev":94},{"name":"第二搜救救助分隊","type":"分隊","address":"桃園市中壢區榮民南路800號","lon":121.25621,"lat":24.94014,"elev":157},{"name":"第三搜救救助分隊","type":"分隊","address":"桃園市大園區和平二街5號","lon":121.20113,"lat":25.06142,"elev":27},{"name":"第四搜救救助分隊","type":"分隊","address":"桃園市龍潭區中興路726號","lon":121.22142,"lat":24.86997,"elev":229},{"name":"桃園市政府消防局訓練中心暨防災教育館","type":"","address":"桃園市八德區介壽路二段901巷49弄35號","lon":121.29877,"lat":24.93776,"elev":137},{"name":"新竹市消防局局本部","type":"","address":"","lon":120.95762,"lat":24.81056,"elev":15},{"name":"第一大隊","type":"大隊","address":"","lon":120.94175,"lat":24.80086,"elev":10},{"name":"竹光分隊","type":"分隊","address":"","lon":120.95762,"lat":24.81056,"elev":15},{"name":"中山分隊","type":"分隊","address":"","lon":120.96828,"lat":24.80652,"elev":18},{"name":"南寮分隊","type":"分隊","address":"","lon":120.93749,"lat":24.84048,"elev":5},{"name":"香山分隊","type":"分隊","address":"","lon":120.94175,"lat":24.80086,"elev":10},{"name":"朝山分隊","type":"分隊","address":"","lon":120.91041,"lat":24.75396,"elev":10},{"name":"第二大隊","type":"大隊","address":"","lon":120.98295,"lat":24.80224,"elev":25},{"name":"光復分隊","type":"分隊","address":"","lon":120.97529,"lat":24.80037,"elev":24},{"name":"三民分隊","type":"分隊","address":"","lon":120.97755,"lat":24.81467,"elev":17},{"name":"教育訓練基地","type":"","address":"","lon":120.97144,"lat":24.77233,"elev":46},{"name":"明湖分隊","type":"分隊","address":"","lon":120.97144,"lat":24.77233,"elev":46},{"name":"埔頂分隊","type":"分隊","address":"","lon":121.00785,"lat":24.789,"elev":65},{"name":"金山分隊","type":"分隊","address":"","lon":121.01907,"lat":24.77927,"elev":90},{"name":"消防局局本部","type":"","address":"彰化縣彰化市中央路1號","lon":120.5362,"lat":24.0636,"elev":11},{"name":"第一大隊彰化分隊","type":"大隊","address":"彰化縣彰化市中央路1號","lon":120.5362,"lat":24.0636,"elev":11},{"name":"第一大隊彰化東區分隊","type":"大隊","address":"彰化縣彰化市中山路三段266號","lon":120.5654,"lat":24.0888,"elev":19},{"name":"第一大隊花壇分隊","type":"大隊","address":"彰化縣花壇鄉彰員路二段497號","lon":120.5491,"lat":24.0279,"elev":21},{"name":"第一大隊芬園分隊","type":"大隊","address":"彰化縣芬園鄉彰南路四段189號","lon":120.6285,"lat":24.0154,"elev":56},{"name":"第一大隊和美分隊","type":"大隊","address":"彰化縣和美鎮德美路520號","lon":120.4983,"lat":24.1177,"elev":8},{"name":"第一大隊線西分隊","type":"大隊","address":"彰化縣線西鄉和線路972號","lon":120.4709,"lat":24.1303,"elev":5},{"name":"第一大隊伸港分隊","type":"大隊","address":"彰化縣伸港鄉中興路二段197號","lon":120.4856,"lat":24.1593,"elev":4},{"name":"第二大隊","type":"大隊","address":"彰化縣員林市員林大道6段200號","lon":120.5616,"lat":23.964,"elev":22},{"name":"第二大隊員林分隊","type":"大隊","address":"彰化縣員林市和平東街21號","lon":120.5788,"lat":23.9627,"elev":24},{"name":"第二大隊員林西區分隊","type":"大隊","address":"彰化縣員林市員林大道6段200號","lon":120.5616,"lat":23.964,"elev":22},{"name":"第二大隊大村分隊","type":"大隊","address":"彰化縣大村鄉茄苳路一段52號","lon":120.5445,"lat":23.9954,"elev":16},{"name":"第二大隊永靖分隊","type":"大隊","address":"彰化縣永靖鄉永靖街2號","lon":120.5471,"lat":23.9201,"elev":28},{"name":"第二大隊田中分隊","type":"大隊","address":"彰化縣田中鎮斗中路一段230號","lon":120.5802,"lat":23.8616,"elev":45},{"name":"第二大隊社頭分隊","type":"大隊","address":"彰化縣社頭鄉員集路二段204號","lon":120.5879,"lat":23.8984,"elev":38},{"name":"第二大隊二水分隊","type":"大隊","address":"彰化縣二水鄉惠民路199號","lon":120.6189,"lat":23.8123,"elev":83},{"name":"第三大隊","type":"大隊","address":"彰化縣鹿港鎮建國路489號","lon":120.437,"lat":24.0658,"elev":3},{"name":"第三大隊鹿港分隊","type":"大隊","address":"彰化縣鹿港鎮中山路296號","lon":120.4334,"lat":24.057,"elev":4},{"name":"第三大隊鹿鳴分隊","type":"大隊","address":"彰化縣鹿港鎮建國路489號","lon":120.437,"lat":24.0658,"elev":3},{"name":"第三大隊福興分隊","type":"大隊","address":"彰化縣福興鄉復興路33號","lon":120.4746,"lat":24.0329,"elev":9},{"name":"第三大隊秀水分隊","type":"大隊","address":"彰化縣秀水鄉復新街5號","lon":120.4982,"lat":24.0305,"elev":12},{"name":"第三大隊溪湖分隊","type":"大隊","address":"彰化縣溪湖鎮大溪路二段330號","lon":120.4828,"lat":23.9649,"elev":15},{"name":"第三大隊埔鹽分隊","type":"大隊","address":"彰化縣埔鹽鄉員鹿路二段160號","lon":120.4599,"lat":24.0074,"elev":10},{"name":"第三大隊埔心分隊","type":"大隊","address":"彰化縣埔心鄉中正路二段155號","lon":120.5242,"lat":23.9494,"elev":21},{"name":"第四大隊","type":"大隊","address":"彰化縣埤頭鄉安康街100號","lon":120.4598,"lat":23.8896,"elev":22},{"name":"第四大隊北斗分隊","type":"大隊","address":"彰化縣北斗鎮公所街12號","lon":120.5214,"lat":23.8713,"elev":33},{"name":"第四大隊溪州分隊","type":"大隊","address":"彰化縣溪州鄉中山路三段278號","lon":120.4931,"lat":23.8529,"elev":32},{"name":"第四大隊田尾分隊","type":"大隊","address":"彰化縣田尾鄉公園東路1號","lon":120.5338,"lat":23.8961,"elev":34},{"name":"第四大隊埤頭分隊","type":"大隊","address":"彰化縣埤頭鄉安康街100號","lon":120.4598,"lat":23.8896,"elev":22},{"name":"第四大隊芳苑分隊","type":"大隊","address":"彰化縣芳苑鄉斗苑路194巷50號","lon":120.3203,"lat":23.9242,"elev":3},{"name":"第四大隊大城分隊","type":"大隊","address":"彰化縣大城鄉南平路911號","lon":120.3113,"lat":23.8551,"elev":6},{"name":"第四大隊竹塘分隊","type":"大隊","address":"彰化縣竹塘鄉竹林路一段285號","lon":120.4278,"lat":23.8602,"elev":20},{"name":"第四大隊漢寶分隊","type":"大隊","address":"彰化縣芳苑鄉草漢路漢寶段568號","lon":120.3856,"lat":24.0067,"elev":4},{"name":"第四大隊二林分隊","type":"大隊","address":"彰化縣二林鎮豐田里仁愛路200號","lon":120.3762,"lat":23.9031,"elev":12},{"name":"第四大隊二林中科分隊","type":"大隊","address":"彰化縣二林鎮東勢里產學五路119號","lon":120.4299,"lat":23.9357,"elev":14},{"name":"第五大隊","type":"大隊","address":"彰化縣員林市員南路420巷66弄25號","lon":120.6031,"lat":23.941,"elev":51},{"name":"第五大隊林厝分隊","type":"大隊","address":"彰化縣員林市員南路420巷66弄25號","lon":120.6031,"lat":23.941,"elev":51},{"name":"埔心物流中心","type":"","address":"彰化縣埔心鄉員鹿路二段415號","lon":120.542,"lat":23.9527,"elev":23},{"name":"鼓山分隊","type":"分隊","address":"","lon":120.27548,"lat":22.62335,"elev":2},{"name":"左營分隊","type":"分隊","address":"","lon":120.28568,"lat":22.67142,"elev":9},{"name":"左營小隊","type":"小隊","address":"","lon":120.29541,"lat":22.69058,"elev":18},{"name":"楠梓分隊","type":"分隊","address":"","lon":120.32533,"lat":22.73687,"elev":16},{"name":"新興分隊","type":"分隊","address":"","lon":120.31127,"lat":22.63045,"elev":4},{"name":"前金分隊","type":"分隊","address":"","lon":120.29424,"lat":22.62856,"elev":2},{"name":"苓雅分隊","type":"分隊","address":"","lon":120.33063,"lat":22.62269,"elev":7},{"name":"前鎮分隊","type":"分隊","address":"","lon":120.31897,"lat":22.58657,"elev":3},{"name":"旗津分隊","type":"分隊","address":"","lon":120.28818,"lat":22.5859,"elev":4},{"name":"小港分隊","type":"分隊","address":"","lon":120.33636,"lat":22.56294,"elev":3},{"name":"鳳山分隊","type":"分隊","address":"","lon":120.36285,"lat":22.62761,"elev":11},{"name":"林園分隊","type":"分隊","address":"","lon":120.39452,"lat":22.50822,"elev":4},{"name":"大寮分隊","type":"分隊","address":"","lon":120.39473,"lat":22.60809,"elev":17},{"name":"大樹分隊","type":"分隊","address":"","lon":120.43192,"lat":22.69638,"elev":40},{"name":"大社分隊","type":"分隊","address":"","lon":120.35409,"lat":22.72934,"elev":21},{"name":"仁武分隊","type":"分隊","address":"","lon":120.3587,"lat":22.70162,"elev":26},{"name":"鳥松分隊","type":"分隊","address":"","lon":120.35992,"lat":22.65624,"elev":18},{"name":"岡山分隊","type":"分隊","address":"","lon":120.29444,"lat":22.79629,"elev":6},{"name":"橋頭分隊","type":"分隊","address":"","lon":120.29678,"lat":22.74145,"elev":7},{"name":"燕巢分隊","type":"分隊","address":"","lon":120.3614,"lat":22.7883,"elev":44},{"name":"田寮分隊","type":"分隊","address":"","lon":120.40575,"lat":22.82495,"elev":96},{"name":"阿蓮分隊","type":"分隊","address":"","lon":120.32941,"lat":22.87918,"elev":21},{"name":"路竹分隊","type":"分隊","address":"","lon":120.25901,"lat":22.85493,"elev":18},{"name":"湖內分隊","type":"分隊","address":"","lon":120.21107,"lat":22.90823,"elev":3},{"name":"茄萣分隊","type":"分隊","address":"","lon":120.18319,"lat":22.90353,"elev":2},{"name":"永安分隊","type":"分隊","address":"","lon":120.23688,"lat":22.82312,"elev":4},{"name":"彌陀分隊","type":"分隊","address":"","lon":120.24627,"lat":22.78392,"elev":3},{"name":"梓官分隊","type":"分隊","address":"","lon":120.26296,"lat":22.76037,"elev":8},{"name":"旗山分隊","type":"分隊","address":"","lon":120.48338,"lat":22.88823,"elev":49},{"name":"美濃分隊","type":"分隊","address":"","lon":120.54233,"lat":22.90063,"elev":48},{"name":"六龜分隊","type":"分隊","address":"","lon":120.63362,"lat":22.99783,"elev":252},{"name":"甲仙分隊","type":"分隊","address":"","lon":120.59025,"lat":23.08331,"elev":263},{"name":"杉林分隊","type":"分隊","address":"","lon":120.54242,"lat":22.96786,"elev":122},{"name":"內門分隊","type":"分隊","address":"","lon":120.45857,"lat":22.92961,"elev":58},{"name":"茂林分隊","type":"分隊","address":"","lon":120.67039,"lat":22.89389,"elev":284},{"name":"桃源分隊","type":"分隊","address":"","lon":120.76417,"lat":23.15814,"elev":601},{"name":"十全分隊","type":"分隊","address":"","lon":120.31128,"lat":22.64505,"elev":5},{"name":"大昌分隊","type":"分隊","address":"","lon":120.32495,"lat":22.6493,"elev":7},{"name":"大林分隊","type":"分隊","address":"","lon":120.34601,"lat":22.52707,"elev":3},{"name":"中庄分隊","type":"分隊","address":"","lon":120.39697,"lat":22.6322,"elev":16},{"name":"中華分隊","type":"分隊","address":"","lon":120.2916,"lat":22.65012,"elev":3},{"name":"五甲分隊","type":"分隊","address":"","lon":120.33491,"lat":22.59758,"elev":8},{"name":"右昌分隊","type":"分隊","address":"","lon":120.2917,"lat":22.7177,"elev":6},{"name":"成功分隊","type":"分隊","address":"","lon":120.30743,"lat":22.59313,"elev":4},{"name":"那瑪夏分隊","type":"分隊","address":"","lon":120.69504,"lat":23.23136,"elev":543},{"name":"特搜中隊","type":"中隊","address":"","lon":120.3587,"lat":22.70162,"elev":26},{"name":"高桂分隊","type":"分隊","address":"","lon":120.3706,"lat":22.56236,"elev":8},{"name":"崇德駐地","type":"","address":"","lon":120.38253,"lat":22.87743,"elev":29},{"name":"新莊分隊","type":"分隊","address":"","lon":120.31806,"lat":22.6754,"elev":9},{"name":"瑞隆分隊","type":"分隊","address":"","lon":120.32567,"lat":22.60025,"elev":6},{"name":"鼎金分隊","type":"分隊","address":"","lon":120.32171,"lat":22.66689,"elev":9},{"name":"鳳祥分隊","type":"分隊","address":"","lon":120.35931,"lat":22.59253,"elev":11},{"name":"寶來分隊","type":"分隊","address":"","lon":120.70325,"lat":23.11047,"elev":406},{"name":"消防局","type":"","address":"屏東市和興里忠孝路226號","lon":120.49022,"lat":22.69351,"elev":30},{"name":"高級救護隊","type":"","address":"屏東市和興里忠孝路226號","lon":120.49022,"lat":22.69351,"elev":30},{"name":"屏東分隊","type":"分隊","address":"屏東市豐榮里勝利東路47號","lon":120.49853,"lat":22.67689,"elev":26},{"name":"屏二分隊","type":"分隊","address":"屏東市龍華路52號","lon":120.48454,"lat":22.63806,"elev":21},{"name":"長治分隊","type":"分隊","address":"屏東縣長治鄉德成村中興路572之1號","lon":120.54303,"lat":22.69261,"elev":42},{"name":"里港分隊","type":"分隊","address":"屏東縣里港鄉太平村信義路2號","lon":120.49382,"lat":22.77915,"elev":37},{"name":"鹽埔分隊","type":"分隊","address":"屏東縣鹽埔鄉鹽北村勝利路165-1號","lon":120.57719,"lat":22.76027,"elev":57},{"name":"九如分隊","type":"分隊","address":"屏東縣九如鄉東寧村九如路二段412號","lon":120.49047,"lat":22.74006,"elev":33},{"name":"麟洛分隊","type":"分隊","address":"屏東縣麟洛鄉麟蹄村成功路192號","lon":120.52607,"lat":22.65739,"elev":26},{"name":"高樹分隊","type":"分隊","address":"屏東縣高樹鄉高樹村興中路336號","lon":120.60066,"lat":22.82687,"elev":87},{"name":"瑪家分隊","type":"分隊","address":"屏東縣瑪家鄉北葉村風景路1-20號","lon":120.66025,"lat":22.69629,"elev":718},{"name":"三地門分隊","type":"分隊","address":"屏東縣三地門鄉三地門村中正路2段103號","lon":120.65365,"lat":22.71676,"elev":258},{"name":"霧台分隊","type":"分隊","address":"屏東縣霧台鄉霧台村神山巷69號","lon":120.72649,"lat":22.74964,"elev":718},{"name":"內埔分隊","type":"分隊","address":"屏東縣內埔鄉內田村廣濟路209號","lon":120.56625,"lat":22.61372,"elev":24},{"name":"龍泉分隊","type":"分隊","address":"屏東縣內埔鄉龍泉村中勝路308號","lon":120.60029,"lat":22.66947,"elev":58},{"name":"潮州分隊","type":"分隊","address":"屏東縣潮州鎮三共里文化路191號","lon":120.54351,"lat":22.55786,"elev":13},{"name":"竹田分隊","type":"分隊","address":"屏東縣竹田鄉竹田村自強路41-20號","lon":120.54588,"lat":22.58568,"elev":14},{"name":"萬丹分隊","type":"分隊","address":"屏東縣萬丹鄉和平西路149號","lon":120.48518,"lat":22.58847,"elev":14},{"name":"萬巒分隊","type":"分隊","address":"屏東縣萬巒鄉佳和村佳興路46號","lon":120.59407,"lat":22.57209,"elev":30},{"name":"來義分隊","type":"分隊","address":"屏東縣來義鄉丹林村古義路2-1號","lon":120.64897,"lat":22.5275,"elev":115},{"name":"泰武分隊","type":"分隊","address":"屏東縣泰武鄉佳平村佳平巷122號","lon":120.63363,"lat":22.59216,"elev":105},{"name":"新埤分隊","type":"分隊","address":"屏東縣新埤鄉民眾路103號","lon":120.58285,"lat":22.46801,"elev":21},{"name":"東港分隊","type":"分隊","address":"屏東縣東港鎮船頭里船頭路9之60號","lon":120.46131,"lat":22.46317,"elev":2},{"name":"新園分隊","type":"分隊","address":"屏東縣新園鄉仙吉村店口路116號","lon":120.4616,"lat":22.54334,"elev":6},{"name":"崁頂分隊","type":"分隊","address":"屏東縣崁頂鄉崁頂村興農路20之10號","lon":120.50903,"lat":22.51323,"elev":7},{"name":"林邊分隊","type":"分隊","address":"屏東縣林邊鄉光林村和平路45-5號","lon":120.50981,"lat":22.43106,"elev":2},{"name":"南州分隊","type":"分隊","address":"屏東縣南州鄉溪南村人和路241號","lon":120.50281,"lat":22.48594,"elev":3},{"name":"琉球分隊","type":"分隊","address":"屏東縣琉球鄉本福村民生路5之1號","lon":120.37952,"lat":22.35131,"elev":29},{"name":"枋寮分隊","type":"分隊","address":"屏東縣枋寮鄉枋寮村德興路48號","lon":120.59313,"lat":22.36614,"elev":3},{"name":"春日分隊","type":"分隊","address":"屏東縣春日鄉力里村圓山路27號","lon":120.64762,"lat":22.43287,"elev":136},{"name":"佳冬分隊","type":"分隊","address":"屏東縣佳冬鄉石光村中山路213號","lon":120.56299,"lat":22.43901,"elev":11},{"name":"恆春分隊","type":"分隊","address":"屏東縣恆春鎮山腳里天文路33號","lon":120.74649,"lat":22.00304,"elev":22},{"name":"滿州分隊","type":"分隊","address":"屏東縣滿州鄉滿州村中山路1號","lon":120.83699,"lat":22.01384,"elev":32},{"name":"枋山分隊","type":"分隊","address":"屏東縣枋山鄉舊庄路1-10號","lon":120.69194,"lat":22.19534,"elev":9},{"name":"車城分隊","type":"分隊","address":"屏東縣車城鄉福安村福安路2-6號","lon":120.70878,"lat":22.06896,"elev":3},{"name":"墾丁分隊","type":"分隊","address":"屏東縣恆春鎮鵝鑾里船帆路730號","lon":120.8234,"lat":21.93455,"elev":9},{"name":"獅子分隊","type":"分隊","address":"屏東縣獅子鄉楓林村楓林2巷43號","lon":120.70399,"lat":22.20199,"elev":42},{"name":"牡丹分隊","type":"分隊","address":"屏東縣牡丹鄉牡丹路97號","lon":120.8372,"lat":22.17548,"elev":274},{"name":"特搜大隊","type":"大隊","address":"屏東縣長治鄉德成村中興路572之2號","lon":120.54303,"lat":22.69261,"elev":42},{"name":"臺中市政府消防局第一大隊","type":"大隊","address":"臺中市豐原區圓環北路一段321號","lon":120.71952,"lat":24.25861,"elev":208},{"name":"臺中市政府消防局豐原分隊","type":"分隊","address":"臺中市豐原區圓環北路一段321號","lon":120.71952,"lat":24.25861,"elev":208},{"name":"臺中市政府消防局潭子分隊","type":"分隊","address":"臺中市潭子區中山路二段237巷3號","lon":120.70437,"lat":24.20948,"elev":166},{"name":"臺中市政府消防局大雅分隊","type":"分隊","address":"臺中市大雅區學府路80號","lon":120.65084,"lat":24.21842,"elev":133},{"name":"臺中市政府消防局神岡分隊","type":"分隊","address":"臺中市神岡區北庄里厚生路9號","lon":120.67102,"lat":24.25692,"elev":173},{"name":"臺中市政府消防局頭家厝分隊","type":"分隊","address":"臺中市潭子區家福里得天南街37巷55號","lon":120.70001,"lat":24.1931,"elev":145},{"name":"臺中市政府消防局豐南分隊","type":"分隊","address":"臺中市豐原區育英路150號","lon":120.71505,"lat":24.24086,"elev":202},{"name":"臺中市政府消防局葫蘆墩高級救護隊","type":"分隊","address":"臺中市豐原區圓環北路一段321號","lon":120.71952,"lat":24.25861,"elev":208},{"name":"臺中市政府消防局東勢分隊","type":"分隊","address":"臺中市東勢區東關路七段430號1樓","lon":120.8257,"lat":24.25501,"elev":343},{"name":"臺中市政府消防局新社分隊","type":"分隊","address":"臺中市新社區新社里興安路1號","lon":120.80677,"lat":24.23826,"elev":435},{"name":"臺中市政府消防局石岡分隊","type":"分隊","address":"臺中市石岡區石城街9號","lon":120.77961,"lat":24.27601,"elev":294},{"name":"臺中市政府消防局和平分隊","type":"分隊","address":"臺中市和平區南勢里東關路三段157號","lon":120.88388,"lat":24.17433,"elev":545},{"name":"臺中市政府消防局梨山分隊","type":"分隊","address":"臺中市和平區復興路松柏巷42號","lon":121.26257,"lat":24.25777,"elev":1999},{"name":"臺中市政府消防局雙崎分隊","type":"分隊","address":"臺中市和平區自由里東崎路二段39號","lon":120.90945,"lat":24.29228,"elev":553},{"name":"臺中市政府消防局谷關分隊","type":"分隊","address":"臺中市和平區東關路一段119號","lon":121.00753,"lat":24.20283,"elev":736},{"name":"臺中市政府消防局仁化分隊","type":"分隊","address":"臺中市大里區工業四路1號","lon":120.71444,"lat":24.0946,"elev":72},{"name":"臺中市政府消防局霧峰分隊","type":"分隊","address":"臺中市霧峰區吉峰路18號","lon":120.70063,"lat":24.07562,"elev":58},{"name":"臺中市政府消防局大里分隊","type":"分隊","address":"臺中市大里區國光路二段299號1樓","lon":120.68009,"lat":24.10719,"elev":49},{"name":"臺中市政府消防局太平分隊","type":"分隊","address":"臺中市太平區中興東路46號","lon":120.71961,"lat":24.12964,"elev":87},{"name":"臺中市政府消防局烏日分隊","type":"分隊","address":"臺中市烏日區新興路312號","lon":120.62444,"lat":24.10452,"elev":27},{"name":"臺中市政府消防局中山分隊","type":"分隊","address":"臺中市太平區中山路四段23號","lon":120.7129,"lat":24.14957,"elev":97},{"name":"臺中市政府消防局十九甲分隊","type":"分隊","address":"臺中市大里區立元路26號","lon":120.69517,"lat":24.09954,"elev":51},{"name":"臺中市政府消防局溪湳分隊","type":"分隊","address":"臺中市烏日區溪南路一段823巷59號","lon":120.64395,"lat":24.06959,"elev":35},{"name":"臺中市政府消防局車籠埔分隊","type":"分隊","address":"臺中市太平區光興路1463巷33弄67號","lon":120.73342,"lat":24.12502,"elev":96},{"name":"臺中市政府消防局赫力高級救護隊","type":"分隊","address":"臺中市大里區國光路二段299號","lon":120.68009,"lat":24.10719,"elev":49},{"name":"臺中市政府消防局沙鹿分隊","type":"分隊","address":"臺中市沙鹿區鎮南路二段476號","lon":120.56586,"lat":24.23253,"elev":47},{"name":"臺中市政府消防局清水分隊","type":"分隊","address":"臺中市清水區南社路198號","lon":120.5624,"lat":24.26635,"elev":5},{"name":"臺中市政府消防局梧棲分隊","type":"分隊","address":"臺中市梧棲區四維路一段1號","lon":120.53683,"lat":24.26319,"elev":5},{"name":"臺中市政府消防局大肚分隊","type":"分隊","address":"臺中市大肚區沙田路三段165號","lon":120.54371,"lat":24.15784,"elev":8},{"name":"臺中市政府消防局龍井分隊","type":"分隊","address":"臺中市龍井區沙田路四段183號","lon":120.54552,"lat":24.1911,"elev":6},{"name":"臺中市政府消防局犁份分隊","type":"分隊","address":"臺中市龍井區西屯路四段830巷30號","lon":120.57895,"lat":24.18858,"elev":214},{"name":"臺中市政府消防局清泉分隊","type":"分隊","address":"臺中市沙鹿區公明里中清路六段119號","lon":120.61269,"lat":24.24445,"elev":208},{"name":"臺中市政府消防局幼獅分隊","type":"分隊","address":"臺中市大甲區日南里幼二路32巷1號","lon":120.64704,"lat":24.40524,"elev":38},{"name":"臺中市政府消防局大甲分隊","type":"分隊","address":"臺中市大甲區經國路695號","lon":120.61927,"lat":24.35556,"elev":37},{"name":"臺中市政府消防局外埔分隊","type":"分隊","address":"臺中市外埔區大同里六分路348號","lon":120.65552,"lat":24.33232,"elev":144},{"name":"臺中市政府消防局后里分隊","type":"分隊","address":"臺中市后里區墩東里文明路146號","lon":120.71784,"lat":24.307,"elev":224},{"name":"臺中市政府消防局大安分隊","type":"分隊","address":"臺中市大安區中山南路199號","lon":120.58846,"lat":24.34345,"elev":26},{"name":"臺中市政府消防局黎明分隊","type":"分隊","address":"臺中市西屯區青海路二段120號","lon":120.64916,"lat":24.16764,"elev":89},{"name":"臺中市政府消防局南屯分隊","type":"分隊","address":"臺中市南屯區向心南路916號","lon":120.64416,"lat":24.13579,"elev":58},{"name":"臺中市政府消防局協和分隊","type":"分隊","address":"臺中市西屯區台灣大道四段1347號","lon":120.60882,"lat":24.18383,"elev":140},{"name":"臺中市政府消防局工業區分隊","type":"分隊","address":"臺中市西屯區工業區二十七路15號","lon":120.60087,"lat":24.16611,"elev":141},{"name":"臺中市政府消防局春社分隊","type":"分隊","address":"臺中市南屯區精科路22號","lon":120.60543,"lat":24.14722,"elev":95},{"name":"臺中市政府消防局中港分隊","type":"分隊","address":"臺中市北區台灣大道二段350號","lon":120.66564,"lat":24.1541,"elev":85},{"name":"臺中市政府消防局信義分隊","type":"分隊","address":"臺中市南區台中路134號","lon":120.68411,"lat":24.13185,"elev":68},{"name":"臺中市政府消防局中區分隊","type":"分隊","address":"臺中市中區成功路332號","lon":120.67853,"lat":24.14476,"elev":80},{"name":"臺中市政府消防局勤工分隊","type":"分隊","address":"臺中市南區復興路一段235號","lon":120.65787,"lat":24.11053,"elev":41},{"name":"臺中市政府消防局東英分隊","type":"分隊","address":"臺中市東區東英八街42號","lon":120.70458,"lat":24.14147,"elev":86},{"name":"臺中市政府消防局博館高級救護隊","type":"分隊","address":"臺中市北區台灣大道二段350號","lon":120.66564,"lat":24.1541,"elev":85},{"name":"臺中市政府消防局文昌分隊","type":"分隊","address":"臺中市北屯區文昌東三街48號","lon":120.68059,"lat":24.17053,"elev":109},{"name":"臺中市政府消防局北屯分隊","type":"分隊","address":"臺中市北屯區北屯路88號","lon":120.69339,"lat":24.16312,"elev":107},{"name":"臺中市政府消防局四平分隊","type":"分隊","address":"臺中市北屯區后庄路909號","lon":120.68195,"lat":24.19265,"elev":133},{"name":"臺中市政府消防局水湳分隊","type":"分隊","address":"臺中市北屯區經貿二路138號","lon":120.66082,"lat":24.18761,"elev":113},{"name":"臺中市政府消防局東山分隊","type":"分隊","address":"臺中市北屯區軍福十三路268號","lon":120.72228,"lat":24.17274,"elev":134},{"name":"臺中市政府消防局國光分隊","type":"分隊","address":"臺中市大里區大里路289號","lon":120.67867,"lat":24.09765,"elev":43},{"name":"臺中市政府消防局西屯分隊","type":"分隊","address":"臺中市西屯區西屯路三段40號","lon":120.63792,"lat":24.18102,"elev":89},{"name":"臺中市政府消防局大誠分隊","type":"分隊","address":"臺中市北區錦南街46號","lon":120.68704,"lat":24.15464,"elev":96},{"name":"臺中市政府消防局搜救犬隊","type":"分隊","address":"臺中市霧峰區信義路24號","lon":120.69524,"lat":24.04294,"elev":71},{"name":"基隆市消防局","type":"大隊","address":"基隆市安樂區基金一路129巷6號","lon":121.71415,"lat":25.13859,"elev":36},{"name":"基隆市消防局仁愛分隊","type":"分隊","address":"基隆市仁愛區成功一路86號","lon":121.73794,"lat":25.12732,"elev":3},{"name":"基隆市消防局信二分隊","type":"分隊","address":"基隆市中正區信二路299號","lon":121.74625,"lat":25.13088,"elev":2},{"name":"基隆市消防局百福分隊","type":"分隊","address":"基隆市七堵區百六街116號","lon":121.69737,"lat":25.08542,"elev":16},{"name":"基隆市消防局七堵分隊","type":"分隊","address":"基隆市七堵區光明路145號","lon":121.71281,"lat":25.09431,"elev":20},{"name":"基隆市消防局中山分隊","type":"分隊","address":"基隆市中山區復興路204號","lon":121.72678,"lat":25.14594,"elev":32},{"name":"基隆市消防局中正分隊","type":"分隊","address":"基隆市中正區環港街100號","lon":121.79332,"lat":25.14013,"elev":3},{"name":"基隆市消防局暖暖分隊","type":"分隊","address":"基隆市暖暖區東碇路7號","lon":121.74042,"lat":25.09473,"elev":51},{"name":"基隆市消防局信義分隊","type":"分隊","address":"基隆市信義區教忠街65號","lon":121.77838,"lat":25.1364,"elev":66},{"name":"基隆市消防局安樂分隊","type":"分隊","address":"基隆市安樂區基金一路129巷6號","lon":121.71415,"lat":25.13859,"elev":36},{"name":"臺南市消防局第一救災救護大隊","type":"大隊","address":"臺南市新營區三興街380號","lon":120.30953,"lat":23.32284,"elev":11},{"name":"臺南市消防局新營分隊","type":"分隊","address":"臺南市新營區中華路2號","lon":120.31534,"lat":23.30531,"elev":13},{"name":"臺南市消防局關嶺分隊","type":"分隊","address":"臺南市白河區關嶺里5鄰關子嶺94-3號","lon":120.43503,"lat":23.36599,"elev":44},{"name":"臺南市消防局鹽水分隊","type":"分隊","address":"臺南市鹽水區治水路268巷8號","lon":120.2632,"lat":23.31924,"elev":6},{"name":"臺南市消防局柳營分隊","type":"分隊","address":"臺南市柳營區士林里博愛街20號","lon":120.31109,"lat":23.2781,"elev":12},{"name":"臺南市消防局東原分隊","type":"分隊","address":"臺南市東山區東原里前大埔9-1號","lon":120.44721,"lat":23.26785,"elev":88},{"name":"臺南市消防局後壁分隊","type":"分隊","address":"臺南市後壁區後壁里7號","lon":120.35796,"lat":23.36321,"elev":18},{"name":"臺南市消防局東山分隊","type":"分隊","address":"臺南市東山區東山里219-2號","lon":120.40263,"lat":23.32822,"elev":30},{"name":"臺南市消防局白河中隊","type":"分隊","address":"臺南市白河區中山路6號","lon":120.41283,"lat":23.34582,"elev":33},{"name":"臺南市消防局白河分隊","type":"分隊","address":"臺南市白河區中山路6號","lon":120.41283,"lat":23.34582,"elev":33},{"name":"臺南市消防局第二救災救護大隊","type":"大隊","address":"臺南市麻豆區興國路9號3樓","lon":120.24852,"lat":23.18332,"elev":6},{"name":"臺南市消防局麻豆分隊","type":"分隊","address":"臺南市麻豆區興國路9號","lon":120.24853,"lat":23.18327,"elev":6},{"name":"臺南市消防局玉井分隊","type":"分隊","address":"臺南市玉井區中山路2-2號","lon":120.46442,"lat":23.12049,"elev":65},{"name":"臺南市消防局玉井中隊","type":"分隊","address":"臺南市玉井區中山路2-2號","lon":120.46442,"lat":23.12049,"elev":65},{"name":"臺南市消防局楠西分隊","type":"分隊","address":"臺南市楠西區信義區66巷3號","lon":120.51639,"lat":23.18202,"elev":153},{"name":"臺南市消防局南化分隊","type":"分隊","address":"臺南市南化區南化里226-2號","lon":120.47897,"lat":23.04261,"elev":120},{"name":"臺南市消防局官田分隊","type":"分隊","address":"臺南市官田區工業路24號","lon":120.32258,"lat":23.20921,"elev":19},{"name":"臺南市消防局下營分隊","type":"分隊","address":"臺南市下營區賀建里洲仔66號","lon":120.28877,"lat":23.24917,"elev":8},{"name":"臺南市消防局六甲分隊","type":"分隊","address":"臺南市六甲區中山路208號","lon":120.34715,"lat":23.23197,"elev":24},{"name":"臺南市消防局第三救災救護大隊","type":"大隊","address":"臺南市佳里區六安里六順路21號","lon":120.17528,"lat":23.17112,"elev":6},{"name":"臺南市消防局佳里分隊","type":"分隊","address":"臺南市佳里區六安里六順路21號","lon":120.17528,"lat":23.17112,"elev":6},{"name":"臺南市消防局將軍分隊","type":"分隊","address":"臺南市將軍區西華里1-15號","lon":120.10118,"lat":23.20549,"elev":0},{"name":"臺南市消防局學甲中隊","type":"分隊","address":"臺南市學甲區建國東路236號","lon":120.1834,"lat":23.23001,"elev":3},{"name":"臺南市消防局學甲分隊","type":"分隊","address":"臺南市學甲區建國東路236號","lon":120.1834,"lat":23.23001,"elev":3},{"name":"臺南市消防局北門分隊","type":"分隊","address":"臺南市北門區永隆里港北51號","lon":120.11707,"lat":23.27604,"elev":0},{"name":"臺南市消防局西港分隊","type":"分隊","address":"臺南市西港區中山路450號","lon":120.20299,"lat":23.12562,"elev":5},{"name":"臺南市消防局七股分隊","type":"分隊","address":"臺南市七股區大埕里295號","lon":120.1445,"lat":23.14536,"elev":2},{"name":"臺南市消防局第四救災救護大隊","type":"大隊","address":"臺南市善化區南科九路20號3樓","lon":120.27055,"lat":23.117,"elev":7},{"name":"臺南市消防局新化分隊","type":"分隊","address":"臺南市新化區信義路59號","lon":120.31629,"lat":23.03827,"elev":15},{"name":"臺南市消防局新化中隊","type":"分隊","address":"臺南市新化區信義路59號","lon":120.31629,"lat":23.03827,"elev":15},{"name":"臺南市消防局新市分隊","type":"分隊","address":"臺南市新市區民生路230號","lon":120.28653,"lat":23.08117,"elev":8},{"name":"臺南市消防局南科分隊","type":"分隊","address":"臺南市善化區南科九路20號","lon":120.27055,"lat":23.117,"elev":7},{"name":"臺南市消防局善化分隊","type":"分隊","address":"臺南市善化區光復路267號","lon":120.28915,"lat":23.12714,"elev":11},{"name":"臺南市消防局山上分隊","type":"分隊","address":"臺南市山上區山上里35-1號","lon":120.3594,"lat":23.10143,"elev":27},{"name":"臺南市消防局左鎮分隊","type":"分隊","address":"臺南市左鎮區睦光里3-6號","lon":120.42136,"lat":23.06018,"elev":39},{"name":"臺南市消防局安定分隊","type":"分隊","address":"臺南市安定區南安里33-11號","lon":120.22631,"lat":23.10128,"elev":5},{"name":"臺南市消防局大內分隊","type":"分隊","address":"臺南市大內區石城里74號","lon":120.35076,"lat":23.11936,"elev":16},{"name":"臺南市消防局第五救災救護大隊","type":"大隊","address":"臺南市永康區東橋七路316號","lon":120.23661,"lat":23.02324,"elev":21},{"name":"臺南市消防局歸仁分隊","type":"分隊","address":"臺南市歸仁區中正南路一段1207號","lon":120.27804,"lat":22.94745,"elev":18},{"name":"臺南市消防局歸仁中隊","type":"分隊","address":"臺南市歸仁區中正南路一段1207號","lon":120.27804,"lat":22.94745,"elev":18},{"name":"臺南市消防局鹽行分隊","type":"分隊","address":"臺南市永康區中正南路426號","lon":120.23028,"lat":23.03479,"elev":9},{"name":"臺南市消防局永康分隊","type":"分隊","address":"臺南市永康區正強街10號","lon":120.25256,"lat":23.02414,"elev":18},{"name":"臺南市消防局復興分隊","type":"分隊","address":"臺南市永康區復興路172號","lon":120.24458,"lat":22.99916,"elev":16},{"name":"臺南市消防局大灣分隊","type":"分隊","address":"臺南市永康區永大路二段519號","lon":120.26257,"lat":23.01626,"elev":9},{"name":"臺南市消防局仁德分隊","type":"分隊","address":"臺南市仁德區仁義路432號","lon":120.25783,"lat":22.96845,"elev":9},{"name":"臺南市消防局文賢分隊","type":"分隊","address":"臺南市仁德區中正路一段502號","lon":120.24484,"lat":22.92901,"elev":5},{"name":"臺南市消防局關廟分隊","type":"分隊","address":"臺南市關廟區關廟里中山路二段185號","lon":120.32417,"lat":22.96039,"elev":41},{"name":"臺南市消防局保西分隊","type":"分隊","address":"臺南市歸仁區中正北路三段16號","lon":120.29287,"lat":22.99046,"elev":21},{"name":"臺南市消防局龍崎專責救護站","type":"分駐所","address":"臺南市龍崎區崎頂里新市仔115號","lon":120.30439,"lat":23.03768,"elev":11},{"name":"臺南市消防局第六救災救護大隊","type":"大隊","address":"臺南市北區文賢路680巷6號","lon":120.19436,"lat":23.01034,"elev":3},{"name":"臺南市消防局安平分隊","type":"分隊","address":"臺南市安平區州平路100號","lon":120.15488,"lat":23.00278,"elev":2},{"name":"臺南市消防局安南分隊","type":"分隊","address":"臺南市安南區海佃路三段63號","lon":120.18236,"lat":23.04858,"elev":3},{"name":"臺南市消防局安南中隊","type":"分隊","address":"臺南市安南區海佃路三段63號","lon":120.18236,"lat":23.04858,"elev":3},{"name":"臺南市消防局永華分隊","type":"分隊","address":"臺南市安平區永華路二段206號","lon":120.18222,"lat":22.98993,"elev":3},{"name":"臺南市消防局公園分隊","type":"分隊","address":"臺南市北區北門路2段172號","lon":120.21514,"lat":23.00528,"elev":17},{"name":"臺南市消防局和緯分隊","type":"分隊","address":"臺南市北區文賢路678號","lon":120.19416,"lat":23.01039,"elev":3},{"name":"臺南市消防局安和分隊","type":"分隊","address":"臺南市安南區安和路三段54巷16號","lon":120.21817,"lat":23.04435,"elev":3},{"name":"臺南市消防局土城分隊","type":"分隊","address":"臺南市安南區安明路四段260號","lon":120.13431,"lat":23.05897,"elev":2},{"name":"臺南市消防局第七救災救護大隊","type":"大隊","address":"臺南市南區南門路273號","lon":120.20381,"lat":22.97871,"elev":18},{"name":"臺南市消防局德興分隊","type":"分隊","address":"臺南市南區德興路100號","lon":120.19234,"lat":22.96424,"elev":3},{"name":"臺南市消防局德興中隊","type":"分隊","address":"臺南市南區德興路100號","lon":120.19234,"lat":22.96424,"elev":3},{"name":"臺南市消防局灣裡分隊","type":"分隊","address":"臺南市南區灣裡路61巷6號","lon":120.18142,"lat":22.93277,"elev":2},{"name":"臺南市消防局南門分隊","type":"分隊","address":"臺南市南區南門路273號","lon":120.20381,"lat":22.97871,"elev":18},{"name":"臺南市消防局後甲分隊","type":"分隊","address":"臺南市東區裕孝路120號","lon":120.2432,"lat":22.98625,"elev":18},{"name":"臺南市消防局崇善分隊","type":"分隊","address":"臺南市東區崇善路740號","lon":120.23235,"lat":22.96661,"elev":24},{"name":"臺南市消防局中正分隊","type":"分隊","address":"臺南市中西區中正路2-1號","lon":120.20437,"lat":22.9926,"elev":12},{"name":"臺南市消防局東門分隊","type":"分隊","address":"臺南市東區林森路一段320號","lon":120.22043,"lat":22.9833,"elev":21},{"name":"宜蘭縣政府消防局","type":"大隊","address":"宜蘭縣宜蘭市舊城南路1號","lon":121.75548,"lat":24.7547,"elev":7},{"name":"宜蘭縣政府消防局頭城分隊","type":"分隊","address":"宜蘭縣頭城鎮開蘭路279巷2號","lon":121.82644,"lat":24.86274,"elev":6},{"name":"宜蘭縣政府消防局礁溪分隊","type":"分隊","address":"宜蘭縣礁溪鄉礁溪路7段82號","lon":121.78631,"lat":24.83664,"elev":10},{"name":"宜蘭縣政府消防局宜蘭分隊","type":"分隊","address":"宜蘭縣宜蘭市光復路52號","lon":121.755,"lat":24.75544,"elev":6},{"name":"宜蘭縣政府消防局員山分隊","type":"分隊","address":"宜蘭縣員山鄉金山東路112號","lon":121.73253,"lat":24.74078,"elev":10},{"name":"宜蘭縣政府消防局壯圍分隊","type":"分隊","address":"宜蘭縣壯圍鄉壯五路156號","lon":121.78646,"lat":24.74631,"elev":3},{"name":"宜蘭縣政府消防局三星分隊","type":"分隊","address":"宜蘭縣三星鄉中山路2段3號","lon":121.65227,"lat":24.66689,"elev":90},{"name":"宜蘭縣政府消防局大同分隊","type":"分隊","address":"宜蘭縣大同鄉崙埤村朝陽巷42號","lon":121.60844,"lat":24.67833,"elev":133},{"name":"宜蘭縣政府消防局大同南山救護站","type":"分駐所","address":"宜蘭縣大同鄉南山村","lon":121.37703,"lat":24.4114,"elev":1424},{"name":"宜蘭縣政府消防局特搜分隊","type":"分隊","address":"宜蘭縣礁溪鄉礁溪路7段86號","lon":121.78681,"lat":24.83655,"elev":10},{"name":"宜蘭縣政府消防局羅東分隊","type":"分隊","address":"宜蘭縣羅東鎮天津路13號","lon":121.76935,"lat":24.67825,"elev":7},{"name":"宜蘭縣政府消防局冬山分隊","type":"分隊","address":"宜蘭縣冬山鄉冬山路98-5號","lon":121.79359,"lat":24.6336,"elev":5},{"name":"宜蘭縣政府消防局蘇澳分隊","type":"分隊","address":"宜蘭縣蘇澳鎮蘇港路80號","lon":121.85236,"lat":24.59439,"elev":6},{"name":"宜蘭縣政府消防局南方澳分隊","type":"分隊","address":"宜蘭縣蘇澳鎮海邊路138號","lon":121.86519,"lat":24.58336,"elev":2},{"name":"宜蘭縣政府消防局五結分隊","type":"分隊","address":"宜蘭縣五結鄉親河路1段175號","lon":121.79496,"lat":24.68424,"elev":4},{"name":"宜蘭縣政府消防局馬賽分隊","type":"分隊","address":"宜蘭縣蘇澳鎮愛丁路14號","lon":121.85333,"lat":24.59423,"elev":6},{"name":"宜蘭縣政府消防局南澳分隊","type":"分隊","address":"宜蘭縣南澳鄉蘇花路2段365號","lon":121.80312,"lat":24.46576,"elev":29},{"name":"宜蘭縣政府消防局廣興分隊","type":"分隊","address":"宜蘭縣冬山鄉復興路382號","lon":121.74397,"lat":24.67113,"elev":23},{"name":"宜蘭縣政府消防局大里分隊","type":"分隊","address":"宜蘭縣頭城鎮濱海路6段100號","lon":121.90323,"lat":24.94467,"elev":8},{"name":"宜蘭縣政府消防局觀音分隊","type":"分隊","address":"宜蘭縣南澳鄉蘇花路2段65-2號","lon":121.79177,"lat":24.46225,"elev":24},{"name":"嘉義市政府消防局第一消防大隊","type":"大隊","address":"嘉義市文化路287號3樓","lon":120.44814,"lat":23.48463,"elev":32},{"name":"嘉義市政府消防局第一分隊","type":"分隊","address":"嘉義市文化路287號","lon":120.44814,"lat":23.48463,"elev":32},{"name":"嘉義市政府消防局德安分隊","type":"分隊","address":"嘉義市德安路171號","lon":120.42815,"lat":23.48346,"elev":27},{"name":"嘉義市政府消防局湖內分隊","type":"分隊","address":"嘉義市南京路59號","lon":120.44093,"lat":23.45616,"elev":33},{"name":"嘉義市政府消防局第二消防大隊","type":"大隊","address":"嘉義市保健街123號3樓","lon":120.45253,"lat":23.50037,"elev":31},{"name":"嘉義市政府消防局後湖分隊","type":"分隊","address":"嘉義市保健街123號","lon":120.45253,"lat":23.50037,"elev":31},{"name":"嘉義市政府消防局第二分隊","type":"分隊","address":"嘉義市興美路302號","lon":120.45288,"lat":23.45744,"elev":31},{"name":"嘉義市政府消防局蘭潭分隊","type":"分隊","address":"嘉義市立學街16號","lon":120.46738,"lat":23.47228,"elev":45},{"name":"嘉義市政府消防局東區分隊","type":"分隊","address":"嘉義市新生路306號","lon":120.46072,"lat":23.48589,"elev":35},{"name":"新竹縣消防局第一大隊","type":"大隊","address":"新竹縣竹北市福興路757號","lon":121.01142,"lat":24.82194,"elev":28},{"name":"新竹縣消防局竹北分隊","type":"分隊","address":"新竹縣竹北市福興路757號","lon":121.01142,"lat":24.82194,"elev":28},{"name":"新竹縣消防局豐田分隊","type":"分隊","address":"新竹縣竹北市中正西路2075巷6號","lon":120.9538,"lat":24.84125,"elev":6},{"name":"新竹縣消防局高鐵分隊","type":"分隊","address":"新竹縣竹北市隘口二路189號","lon":121.03872,"lat":24.8049,"elev":48},{"name":"新竹縣消防局光明高級救護分隊","type":"分隊","address":"新竹縣竹北市光明五街295號","lon":121.01114,"lat":24.8281,"elev":26},{"name":"新竹縣消防局新豐分隊","type":"分隊","address":"新竹縣新豐鄉建興路二段788-1號","lon":120.98713,"lat":24.90092,"elev":15},{"name":"新竹縣消防局山崎分隊","type":"分隊","address":"新竹縣新豐鄉松林村34鄰松林街10號","lon":120.9932,"lat":24.86836,"elev":58},{"name":"新竹縣消防局湖口分隊","type":"分隊","address":"新竹縣湖口鄉信勢村三鄰成功路109號","lon":121.04354,"lat":24.90477,"elev":76},{"name":"新竹縣消防局新工分隊","type":"分隊","address":"新竹縣湖口鄉鳳凰村文化路188號","lon":121.01738,"lat":24.87192,"elev":74},{"name":"新竹縣消防局第二大隊","type":"大隊","address":"新竹縣竹東鎮雞林里長安路77號","lon":121.09336,"lat":24.73571,"elev":118},{"name":"新竹縣消防局竹東分隊","type":"分隊","address":"新竹縣竹東鎮雞林里中正路206號","lon":121.09326,"lat":24.73538,"elev":118},{"name":"新竹縣消防局二重分隊","type":"分隊","address":"新竹縣竹東鎮中興路四段99號","lon":121.04887,"lat":24.77289,"elev":115},{"name":"新竹縣消防局寶山分隊","type":"分隊","address":"新竹縣寶山鄉雙園路二段288號","lon":120.99112,"lat":24.76596,"elev":48},{"name":"新竹縣消防局峨眉分隊","type":"分隊","address":"新竹縣峨眉鄉峨眉村峨眉街1號之1","lon":121.02171,"lat":24.68802,"elev":101},{"name":"新竹縣消防局五峰分隊","type":"分隊","address":"新竹縣五峰鄉桃山村2鄰21號","lon":121.10229,"lat":24.55941,"elev":863},{"name":"新竹縣消防局花園小隊","type":"分駐所","address":"新竹縣五峰鄉花園村1鄰6-1號","lon":121.15386,"lat":24.6488,"elev":596},{"name":"新竹縣消防局第三大隊","type":"大隊","address":"新竹縣新埔鎮田心路660號","lon":121.09083,"lat":24.84961,"elev":186},{"name":"新竹縣消防局新埔分隊","type":"分隊","address":"新竹縣新埔鎮田心路660號","lon":121.09083,"lat":24.84961,"elev":186},{"name":"新竹縣消防局關西分隊","type":"分隊","address":"新竹縣關西鎮正義路146號","lon":121.17559,"lat":24.7951,"elev":146},{"name":"新竹縣消防局芎林分隊","type":"分隊","address":"新竹縣芎林鄉光明路1號","lon":121.07649,"lat":24.77802,"elev":82},{"name":"新竹縣消防局橫山分隊","type":"分隊","address":"新竹縣橫山鄉新興村新興街120號","lon":121.14141,"lat":24.71702,"elev":175},{"name":"新竹縣消防局北埔分隊","type":"分隊","address":"新竹縣北埔鄉南興村南興街66號","lon":121.05708,"lat":24.69891,"elev":136},{"name":"新竹縣消防局尖石分隊","type":"分隊","address":"新竹縣尖石鄉卡法路62號","lon":121.20256,"lat":24.70585,"elev":279},{"name":"新竹縣消防局田埔分隊","type":"分隊","address":"新竹縣尖石鄉秀巒村2鄰田埔71號","lon":121.28002,"lat":24.64034,"elev":1060},{"name":"苗栗縣政府消防局苗栗分隊","type":"分隊","address":"苗栗縣苗栗市金鳳街111號","lon":120.82145,"lat":24.54198,"elev":61},{"name":"苗栗縣政府消防局頭屋分隊","type":"分隊","address":"苗栗縣頭屋鄉尖豐路141-6號","lon":120.84735,"lat":24.57418,"elev":35},{"name":"苗栗縣政府消防局公館分隊","type":"分隊","address":"苗栗縣公館鄉館南街35-19號","lon":120.82239,"lat":24.50335,"elev":101},{"name":"苗栗縣政府消防局銅鑼分隊","type":"分隊","address":"苗栗縣銅鑼鄉武聖街7號","lon":120.78745,"lat":24.48704,"elev":150},{"name":"苗栗縣政府消防局三義分隊","type":"分隊","address":"苗栗縣三義鄉伯公坑209號","lon":120.7414,"lat":24.36516,"elev":255},{"name":"苗栗縣政府消防局特搜分隊","type":"分隊","address":"苗栗縣苗栗市經國路4段201號","lon":120.8426,"lat":24.58188,"elev":32},{"name":"苗栗縣政府消防局竹南分隊","type":"分隊","address":"苗栗縣竹南鎮博愛街785號","lon":120.86209,"lat":24.69093,"elev":8},{"name":"苗栗縣政府消防局後龍分隊","type":"分隊","address":"苗栗縣後龍鎮光華路299號","lon":120.7863,"lat":24.61101,"elev":10},{"name":"苗栗縣政府消防局造橋分隊","type":"分隊","address":"苗栗縣造橋鄉北興2之6號","lon":120.87264,"lat":24.64695,"elev":21},{"name":"苗栗縣政府消防局頭份分隊","type":"分隊","address":"苗栗縣頭份市水源路1巷10號","lon":120.91055,"lat":24.67928,"elev":17},{"name":"苗栗縣政府消防局三灣分隊","type":"分隊","address":"苗栗縣三灣鄉中正路300號","lon":120.95806,"lat":24.6564,"elev":98},{"name":"苗栗縣政府消防局南庄分隊","type":"分隊","address":"苗栗縣南庄鄉大同路27之5號","lon":120.9988,"lat":24.59768,"elev":216},{"name":"苗栗縣政府消防局通霄分隊","type":"分隊","address":"苗栗縣通霄鎮崇仁路36號","lon":120.68579,"lat":24.48941,"elev":10},{"name":"苗栗縣政府消防局苑裡分隊","type":"分隊","address":"苗栗縣苑裡鎮中正113-3號","lon":120.67751,"lat":24.40983,"elev":58},{"name":"苗栗縣政府消防局西湖分隊","type":"分隊","address":"苗栗縣西湖鄉東三湖6-3號","lon":120.75201,"lat":24.54583,"elev":55},{"name":"苗栗縣政府消防局大湖分隊","type":"分隊","address":"苗栗縣大湖鄉忠孝路198號","lon":120.86701,"lat":24.42537,"elev":274},{"name":"苗栗縣政府消防局獅潭分隊","type":"分隊","address":"苗栗縣獅潭鄉新店46之6號","lon":120.92156,"lat":24.54247,"elev":183},{"name":"苗栗縣政府消防局泰安分隊","type":"分隊","address":"苗栗縣泰安鄉圓墩26號","lon":120.9415,"lat":24.46604,"elev":468},{"name":"苗栗縣政府消防局卓蘭分隊","type":"分隊","address":"苗栗縣卓蘭鎮中正路1-10號","lon":120.82846,"lat":24.31197,"elev":334},{"name":"苗栗縣政府消防局象鼻分隊","type":"分隊","address":"苗栗縣泰安鄉象鼻6之1號","lon":120.94605,"lat":24.36131,"elev":674},{"name":"南投縣消防局第一大隊","type":"大隊","address":"南投市南營路810號","lon":120.67919,"lat":23.9458,"elev":85},{"name":"南投分隊","type":"分隊","address":"南投縣南投市民族路494號","lon":120.68007,"lat":23.90686,"elev":114},{"name":"南投縣消防局草屯分隊","type":"分隊","address":"南投縣草屯鎮敦和里碧山南路185號","lon":120.67701,"lat":23.97778,"elev":96},{"name":"南投縣消防局中興分隊","type":"分隊","address":"南投市營北里中正路156號","lon":120.68906,"lat":23.95102,"elev":97},{"name":"南投縣消防局名間分隊","type":"分隊","address":"南投縣名間鄉中正村彰南路44號","lon":120.70268,"lat":23.83852,"elev":156},{"name":"南投縣消防局中寮分隊","type":"分隊","address":"南投縣中寮鄉永平村永平路280號","lon":120.77714,"lat":23.87086,"elev":175},{"name":"南投縣消防局爽文分隊","type":"分隊","address":"南投縣中寮鄉爽文村龍南路193-10號","lon":120.75955,"lat":23.93349,"elev":196},{"name":"南投縣消防局雙冬分隊","type":"分隊","address":"南投縣草屯鎮雙冬里中正路37-3號","lon":120.79311,"lat":23.98769,"elev":202},{"name":"南投縣消防局松柏嶺分隊","type":"分隊","address":"南投縣名間鄉埔中村名松路一段655號","lon":120.64818,"lat":23.83121,"elev":381},{"name":"南投縣消防局碧興分隊","type":"分隊","address":"南投縣草屯鎮碧興路一段340巷21號","lon":120.65457,"lat":23.96006,"elev":80},{"name":"南投縣消防局鳳鳴分隊","type":"分隊","address":"南投市鳳鳴里八卦路831號","lon":120.63793,"lat":23.92509,"elev":425},{"name":"南投縣消防局第二大隊","type":"大隊","address":"南投縣埔里鎮清新里南環路600號","lon":120.95623,"lat":23.95816,"elev":433},{"name":"南投縣消防局埔里分隊","type":"分隊","address":"南投縣埔里鎮清新里南環路600號","lon":120.95623,"lat":23.95816,"elev":433},{"name":"南投縣消防局國姓分隊","type":"分隊","address":"南投縣國姓鄉國姓村長春街1號","lon":120.85475,"lat":24.03425,"elev":290},{"name":"南投縣消防局魚池分隊","type":"分隊","address":"南投縣魚池鄉魚池村魚池街360號","lon":120.93696,"lat":23.89698,"elev":651},{"name":"南投縣消防局日月潭分隊","type":"分隊","address":"南投縣魚池鄉水社村中山路146號","lon":120.91113,"lat":23.86678,"elev":760},{"name":"南投縣消防局仁愛分隊","type":"分隊","address":"南投縣仁愛鄉大同村仁和路91號","lon":121.13282,"lat":24.0237,"elev":1152},{"name":"南投縣消防局中心碑分隊","type":"分隊","address":"南投縣埔里鎮信義路320號","lon":120.97007,"lat":23.97344,"elev":455},{"name":"南投縣消防局第三大隊","type":"大隊","address":"南投縣竹山鎮中山里頂林路150號","lon":120.6814,"lat":23.74868,"elev":169},{"name":"南投縣消防局竹山分隊","type":"分隊","address":"南投縣竹山鎮中山里頂林路150號","lon":120.6814,"lat":23.74868,"elev":169},{"name":"南投縣消防局鹿谷分隊","type":"分隊","address":"南投縣鹿谷鄉彰雅村中正路一段92號","lon":120.76031,"lat":23.73879,"elev":533},{"name":"南投縣消防局集集分隊","type":"分隊","address":"南投縣集集鎮吳厝里中山街1號","lon":120.78667,"lat":23.82822,"elev":232},{"name":"南投縣消防局水里分隊","type":"分隊","address":"南投縣水里鄉北埔村中山路一段439號","lon":120.85049,"lat":23.8105,"elev":274},{"name":"南投縣消防局信義分隊","type":"分隊","address":"南投縣信義鄉明德村明德街50號","lon":120.85253,"lat":23.69691,"elev":496},{"name":"南投縣消防局玉山分隊","type":"分隊","address":"南投縣信義鄉同富村同和巷14之3號","lon":120.88874,"lat":23.59419,"elev":770},{"name":"雲林縣消防局","type":"大隊","address":"雲林縣斗六市公園路6號","lon":120.53057,"lat":23.69866,"elev":46},{"name":"雲林縣消防局斗六分隊","type":"分隊","address":"雲林縣斗六市鎮北路345-1號","lon":120.54109,"lat":23.72058,"elev":45},{"name":"雲林縣消防局林內分隊","type":"分隊","address":"雲林縣林內鄉中正路685號","lon":120.60969,"lat":23.74885,"elev":87},{"name":"雲林縣消防局莿桐分隊","type":"分隊","address":"雲林縣莿桐鄉中山路170號","lon":120.5001,"lat":23.75923,"elev":38},{"name":"雲林縣消防局斗南分隊","type":"分隊","address":"雲林縣斗南鎮自強路11號","lon":120.48321,"lat":23.68295,"elev":32},{"name":"雲林縣消防局大埤分隊","type":"分隊","address":"雲林縣大埤鄉大埤路440號","lon":120.43915,"lat":23.64926,"elev":25},{"name":"雲林縣消防局古坑分隊","type":"分隊","address":"雲林縣古坑鄉中山路393號","lon":120.55982,"lat":23.65449,"elev":83},{"name":"雲林縣消防局公園分隊","type":"分隊","address":"雲林縣斗六市公園路6號","lon":120.53057,"lat":23.69866,"elev":46},{"name":"雲林縣消防局六合分隊","type":"分隊","address":"雲林縣斗六市府前街56號","lon":120.54137,"lat":23.70516,"elev":49},{"name":"雲林縣消防局草嶺分隊","type":"分隊","address":"雲林縣古坑鄉草嶺村草嶺26-2號","lon":120.69288,"lat":23.58461,"elev":798},{"name":"雲林縣消防局虎尾分隊","type":"分隊","address":"雲林縣虎尾鎮行政路10號","lon":120.44501,"lat":23.7089,"elev":27},{"name":"雲林縣消防局土庫分隊","type":"分隊","address":"雲林縣土庫鎮建國路41號","lon":120.39569,"lat":23.67907,"elev":17},{"name":"雲林縣消防局褒忠分隊","type":"分隊","address":"雲林縣褒忠鄉中正路453號","lon":120.30368,"lat":23.69099,"elev":9},{"name":"雲林縣消防局元長分隊","type":"分隊","address":"雲林縣元長鄉中山路124號之3","lon":120.31343,"lat":23.65084,"elev":8},{"name":"雲林縣消防局西螺分隊","type":"分隊","address":"雲林縣西螺鎮中山東路42號","lon":120.46738,"lat":23.80041,"elev":30},{"name":"雲林縣消防局二崙分隊","type":"分隊","address":"雲林縣二崙鄉中正路80號","lon":120.40908,"lat":23.77265,"elev":22},{"name":"雲林縣消防局崙背分隊","type":"分隊","address":"雲林縣崙背鄉東明村行政街8號","lon":120.35961,"lat":23.76188,"elev":15},{"name":"雲林縣消防局高鐵分隊","type":"分隊","address":"雲林縣虎尾鎮廉使里21鄰站前東路59號","lon":120.41736,"lat":23.73129,"elev":23},{"name":"雲林縣消防局北港分隊","type":"分隊","address":"雲林縣北港鎮大同路565號","lon":120.2917,"lat":23.57407,"elev":7},{"name":"雲林縣消防局水林分隊","type":"分隊","address":"雲林縣水林鄉水林路62號","lon":120.24381,"lat":23.57221,"elev":3},{"name":"雲林縣消防局口湖分隊","type":"分隊","address":"雲林縣口湖鄉口湖村中正路一段288號","lon":120.18046,"lat":23.58516,"elev":1},{"name":"雲林縣消防局台西分隊","type":"分隊","address":"雲林縣台西鄉中山路110巷38號","lon":120.19765,"lat":23.70143,"elev":1},{"name":"雲林縣消防局東勢分隊","type":"分隊","address":"雲林縣東勢鄉東勢東路218號之2","lon":120.25804,"lat":23.67452,"elev":5},{"name":"雲林縣消防局四湖分隊","type":"分隊","address":"雲林縣四湖鄉中山西路203號","lon":120.22003,"lat":23.63733,"elev":4},{"name":"雲林縣消防局麥寮分隊","type":"分隊","address":"雲林縣麥寮鄉麥豐村32鄰泰順路210號","lon":120.25734,"lat":23.75191,"elev":5},{"name":"雲林縣消防局北五分隊","type":"分隊","address":"雲林縣麥寮鄉雷厝村122之222號","lon":120.29454,"lat":23.81125,"elev":8},{"name":"嘉義縣消防局","type":"大隊","address":"嘉義縣太保市祥和二路東段6號","lon":120.29353,"lat":23.45685,"elev":9},{"name":"嘉義縣消防局第一大隊","type":"大隊","address":"嘉義縣朴子市光復新路16號","lon":120.24554,"lat":23.45678,"elev":4},{"name":"嘉義縣消防局朴子分隊","type":"分隊","address":"嘉義縣朴子市光復新路16號","lon":120.24554,"lat":23.45678,"elev":4},{"name":"嘉義縣消防局東石分隊","type":"分隊","address":"嘉義縣東石鄉永屯村屯仔頭205號","lon":120.16759,"lat":23.45201,"elev":-1},{"name":"嘉義縣消防局六腳分隊","type":"分隊","address":"嘉義縣六腳鄉蒜頭村73-2號","lon":120.29309,"lat":23.49641,"elev":9},{"name":"嘉義縣消防局布袋分隊","type":"分隊","address":"嘉義縣布袋鎮龍江里2-2號","lon":120.16759,"lat":23.39294,"elev":3},{"name":"嘉義縣消防局義竹分隊","type":"分隊","address":"嘉義縣義竹鄉仁里村435-3號","lon":120.24118,"lat":23.33842,"elev":5},{"name":"嘉義縣消防局鹿草分隊","type":"分隊","address":"嘉義縣鹿草鄉西井村鹿環西路3號","lon":120.30504,"lat":23.40745,"elev":13},{"name":"嘉義縣消防局第二大隊","type":"大隊","address":"嘉義縣民雄鄉建國路2段261號","lon":120.43318,"lat":23.54181,"elev":30},{"name":"嘉義縣消防局雙福救助分隊","type":"分隊","address":"嘉義縣民雄鄉建國路2段261號","lon":120.43318,"lat":23.54181,"elev":30},{"name":"嘉義縣消防局民雄分隊","type":"分隊","address":"嘉義縣民雄鄉民族路21號","lon":120.43024,"lat":23.55509,"elev":26},{"name":"嘉義縣消防局大林分隊","type":"分隊","address":"嘉義縣大林鎮平林里中正路158號","lon":120.44845,"lat":23.59747,"elev":28},{"name":"嘉義縣消防局溪口分隊","type":"分隊","address":"嘉義縣溪口鄉溪西村16鄰中山路168號","lon":120.38985,"lat":23.60045,"elev":14},{"name":"嘉義縣消防局新港分隊","type":"分隊","address":"嘉義縣新港鄉公園路28號","lon":120.34568,"lat":23.55336,"elev":11},{"name":"嘉義縣消防局水上分隊","type":"分隊","address":"嘉義縣水上鄉三鎮村三鎮路119號","lon":120.38915,"lat":23.4195,"elev":25},{"name":"嘉義縣消防局太保分隊","type":"分隊","address":"嘉義縣太保市太保里20號","lon":120.32914,"lat":23.46055,"elev":13},{"name":"嘉義縣消防局大美分隊","type":"分隊","address":"嘉義縣大林鎮大埔美1-1號","lon":120.50442,"lat":23.60097,"elev":54},{"name":"嘉義縣消防局嘉太分隊","type":"分隊","address":"嘉義縣太保市過溝里麻太路112號","lon":120.3643,"lat":23.49825,"elev":17},{"name":"嘉義縣消防局第三大隊","type":"大隊","address":"嘉義縣中埔鄉和興村和興路100號","lon":120.45119,"lat":23.44256,"elev":29},{"name":"嘉義縣消防局三和救助分隊","type":"分隊","address":"嘉義縣中埔鄉和興村和興路100號","lon":120.45119,"lat":23.44256,"elev":29},{"name":"嘉義縣消防局中埔分隊","type":"分隊","address":"嘉義縣中埔鄉中正路68號","lon":120.52383,"lat":23.42509,"elev":133},{"name":"嘉義縣消防局番路分隊","type":"分隊","address":"嘉義縣番路鄉下坑村菜公店21號","lon":120.55349,"lat":23.46467,"elev":203},{"name":"嘉義縣消防局大埔分隊","type":"分隊","address":"嘉義縣大埔鄉大同一路100號","lon":120.59378,"lat":23.3004,"elev":245},{"name":"嘉義縣消防局竹崎分隊","type":"分隊","address":"嘉義縣竹崎鄉竹崎村舊車站79號","lon":120.54806,"lat":23.52071,"elev":116},{"name":"嘉義縣消防局梅山分隊","type":"分隊","address":"嘉義縣梅山鄉梅北村華山路20號","lon":120.55544,"lat":23.58657,"elev":147},{"name":"嘉義縣消防局阿里山分隊","type":"分隊","address":"嘉義縣阿里山鄉中山村63號","lon":120.86138,"lat":23.45003,"elev":2194},{"name":"嘉義縣消防局奮起湖分隊","type":"分隊","address":"嘉義縣竹崎鄉中和村奮起湖215-1號","lon":120.69509,"lat":23.50308,"elev":1367},{"name":"嘉義縣消防局特搜大隊","type":"大隊","address":"嘉義縣太保市祥和二路東段6號","lon":120.29353,"lat":23.45685,"elev":9},{"name":"嘉義縣消防局祥和救助分隊","type":"分隊","address":"嘉義縣太保市祥和二路東段6號1樓","lon":120.29353,"lat":23.45685,"elev":9},{"name":"花蓮縣消防局救災救護第一大隊","type":"大隊","address":"花蓮縣花蓮市國風街21巷66號","lon":121.59626,"lat":23.97643,"elev":13},{"name":"花蓮縣消防局和平分隊","type":"分隊","address":"花蓮縣秀林鄉和平村克尼布東路3號","lon":121.74998,"lat":24.30638,"elev":18},{"name":"花蓮縣消防局新秀分隊","type":"分隊","address":"花蓮縣新城鄉仁愛路1巷23號","lon":121.6525,"lat":24.12692,"elev":16},{"name":"花蓮縣消防局北埔分隊","type":"分隊","address":"花蓮縣新城鄉華富街2號","lon":121.60868,"lat":24.03136,"elev":16},{"name":"花蓮縣消防局美崙分隊","type":"分隊","address":"花蓮縣花蓮市精美路16之2號","lon":121.63,"lat":24.01319,"elev":20},{"name":"花蓮縣消防局花蓮分隊","type":"分隊","address":"花蓮縣花蓮市國風街21巷66號","lon":121.59626,"lat":23.97643,"elev":13},{"name":"花蓮縣消防局自強分隊","type":"分隊","address":"花蓮縣花蓮市中央路三段842號","lon":121.59261,"lat":23.99359,"elev":19},{"name":"花蓮縣消防局仁里分隊","type":"分隊","address":"花蓮縣吉安鄉仁里八街6號","lon":121.59152,"lat":23.96644,"elev":16},{"name":"花蓮縣消防局特種搜救大隊","type":"大隊","address":"花蓮縣吉安鄉吉安路二段66號","lon":121.56222,"lat":23.97167,"elev":40},{"name":"花蓮縣消防局和仁分隊","type":"分隊","address":"花蓮縣秀林鄉和平村和仁62-3號","lon":120.70833,"lat":23.82804,"elev":168},{"name":"花蓮縣消防局吉安分隊","type":"分隊","address":"花蓮縣吉安鄉吉安路二段66號","lon":121.56222,"lat":23.97167,"elev":40},{"name":"花蓮縣消防局救災救護第二大隊","type":"大隊","address":"花蓮縣光復鄉敦厚路23巷22號","lon":121.4253,"lat":23.66619,"elev":120},{"name":"花蓮縣消防局壽豐分隊","type":"分隊","address":"花蓮縣壽豐鄉中山路六段4號","lon":121.50985,"lat":23.86998,"elev":34},{"name":"花蓮縣消防局水璉分隊","type":"分隊","address":"花蓮縣壽豐鄉水璉村水璉路6號","lon":121.56287,"lat":23.78774,"elev":34},{"name":"花蓮縣消防局鳳林分隊","type":"分隊","address":"花蓮縣鳳林鎮信義路212號","lon":121.45356,"lat":23.74683,"elev":100},{"name":"花蓮縣消防局萬榮分隊","type":"分隊","address":"花蓮縣萬榮鄉萬榮村8鄰萬榮212號","lon":121.40852,"lat":23.71396,"elev":198},{"name":"花蓮縣消防局光復分隊","type":"分隊","address":"花蓮縣光復鄉光華街10號","lon":121.42529,"lat":23.66653,"elev":120},{"name":"花蓮縣消防局豐濱分隊","type":"分隊","address":"花蓮縣豐濱鄉豐濱村17鄰小港1號","lon":120.97094,"lat":24.63137,"elev":150},{"name":"花蓮縣消防局救災救護第三大隊","type":"大隊","address":"花蓮縣玉里鎮忠孝路153號","lon":121.31861,"lat":23.32478,"elev":130},{"name":"花蓮縣消防局富源分隊","type":"分隊","address":"花蓮縣瑞穗鄉富源村中正路157號","lon":121.37638,"lat":23.57781,"elev":171},{"name":"花蓮縣消防局瑞穗分隊","type":"分隊","address":"花蓮縣瑞穗鄉瑞祥村祥鶴路69號","lon":121.35988,"lat":23.49478,"elev":133},{"name":"花蓮縣消防局三民分隊","type":"分隊","address":"花蓮縣玉里鎮三民里三民21之1號","lon":121.34747,"lat":23.43088,"elev":91},{"name":"花蓮縣消防局觀音分隊","type":"分隊","address":"花蓮縣玉里鎮觀音里16鄰觀音14之5號","lon":121.3568,"lat":23.39587,"elev":94},{"name":"花蓮縣消防局玉里分隊","type":"分隊","address":"花蓮縣玉里鎮忠孝路153號","lon":121.31861,"lat":23.32478,"elev":130},{"name":"花蓮縣消防局卓溪分隊","type":"分隊","address":"花蓮縣卓溪鄉古風村12鄰古楓3號","lon":120.70833,"lat":23.82804,"elev":168},{"name":"花蓮縣消防局東里分隊","type":"分隊","address":"花蓮縣富里鄉東里村大莊路52號","lon":121.30359,"lat":23.26806,"elev":163},{"name":"花蓮縣消防局富里分隊","type":"分隊","address":"花蓮縣富里鄉富里村中山路142號","lon":121.2475,"lat":23.17286,"elev":236},{"name":"臺東縣消防局","type":"大隊","address":"臺東縣臺東市四維路二段100號","lon":121.15204,"lat":22.7643,"elev":16},{"name":"臺東縣消防局臺東大隊","type":"大隊","address":"臺東縣臺東市四維路二段100號","lon":121.15204,"lat":22.7643,"elev":16},{"name":"臺東縣消防局臺東分隊","type":"分隊","address":"臺東縣臺東市","lon":121.14391,"lat":22.76131,"elev":16},{"name":"臺東縣消防局卑南分隊","type":"分隊","address":"臺東縣卑南鄉","lon":121.08344,"lat":22.78482,"elev":91},{"name":"臺東縣消防局賓朗分隊","type":"分隊","address":"臺東縣卑南鄉","lon":121.08344,"lat":22.78482,"elev":91},{"name":"臺東縣消防局知本分隊","type":"分隊","address":"臺東縣臺東市知本路","lon":121.0506,"lat":22.70851,"elev":43},{"name":"臺東縣消防局豐田分隊","type":"分隊","address":"臺東縣臺東市豐田里","lon":121.08797,"lat":22.76815,"elev":63},{"name":"臺東縣消防局大豐分隊","type":"分隊","address":"臺東縣臺東市","lon":121.14391,"lat":22.76131,"elev":16},{"name":"臺東縣消防局綠島分隊","type":"分隊","address":"臺東縣綠島鄉","lon":121.49014,"lat":22.66209,"elev":189},{"name":"臺東縣消防局蘭嶼分隊","type":"分隊","address":"臺東縣蘭嶼鄉","lon":121.5416,"lat":22.0269,"elev":17},{"name":"臺東縣消防局成功大隊","type":"大隊","address":"臺東縣成功鎮中華路8號1樓","lon":121.37686,"lat":23.09975,"elev":20},{"name":"臺東縣消防局成功分隊","type":"分隊","address":"臺東縣成功鎮","lon":121.3656,"lat":23.12615,"elev":162},{"name":"臺東縣消防局長濱分隊","type":"分隊","address":"臺東縣長濱鄉","lon":121.43419,"lat":23.34518,"elev":387},{"name":"臺東縣消防局東河分隊","type":"分隊","address":"臺東縣東河鄉","lon":121.28552,"lat":23.06917,"elev":198},{"name":"臺東縣消防局泰源分隊","type":"分隊","address":"臺東縣東河鄉泰源村","lon":121.25119,"lat":23.00208,"elev":161},{"name":"臺東縣消防局都蘭分隊","type":"分隊","address":"臺東縣東河鄉都蘭村","lon":121.2054,"lat":22.88412,"elev":206},{"name":"臺東縣消防局關山大隊","type":"大隊","address":"臺東縣關山鎮隆盛路99號","lon":121.16703,"lat":23.04337,"elev":217},{"name":"臺東縣消防局關山分隊","type":"分隊","address":"臺東縣關山鎮","lon":121.16463,"lat":23.04956,"elev":224},{"name":"臺東縣消防局池上分隊","type":"分隊","address":"臺東縣池上鄉","lon":121.21618,"lat":23.12073,"elev":272},{"name":"臺東縣消防局海端分隊","type":"分隊","address":"臺東縣海端鄉","lon":121.17569,"lat":23.13056,"elev":343},{"name":"臺東縣消防局利稻分隊","type":"分隊","address":"臺東縣海端鄉利稻村","lon":120.96469,"lat":23.18182,"elev":1825},{"name":"臺東縣消防局鹿野分隊","type":"分隊","address":"臺東縣鹿野鄉","lon":121.15958,"lat":22.95805,"elev":174},{"name":"臺東縣消防局延平分隊","type":"分隊","address":"臺東縣延平鄉","lon":121.11515,"lat":22.96779,"elev":283},{"name":"臺東縣消防局大武大隊","type":"大隊","address":"臺東縣太麻里鄉泰和村泰王路36號","lon":121.0018,"lat":22.60778,"elev":32},{"name":"臺東縣消防局大武分隊","type":"分隊","address":"臺東縣大武鄉","lon":120.9073,"lat":22.4142,"elev":246},{"name":"臺東縣消防局大溪分隊","type":"分隊","address":"臺東縣大武鄉","lon":120.9073,"lat":22.4142,"elev":246},{"name":"臺東縣消防局太麻里分隊","type":"分隊","address":"臺東縣太麻里鄉泰王路36號","lon":121.0018,"lat":22.60778,"elev":32},{"name":"臺東縣消防局金峰分隊","type":"分隊","address":"臺東縣金峰鄉","lon":120.87286,"lat":22.56041,"elev":883},{"name":"臺東縣消防局達仁分隊","type":"分隊","address":"臺東縣達仁鄉復興路186號","lon":120.87442,"lat":22.2939,"elev":22},{"name":"金門縣消防局","type":"大隊","address":"金門縣金寧鄉頂林路315號","lon":118.32461,"lat":24.46263,"elev":9},{"name":"金門縣消防局第一大隊","type":"大隊","address":"金門縣金城鎮西海路三段43號","lon":118.31551,"lat":24.43206,"elev":9},{"name":"金門縣消防局金城消防分隊","type":"分隊","address":"金門縣金城鎮西海路三段43號","lon":118.31551,"lat":24.43206,"elev":9},{"name":"金門縣消防局金寧消防分隊","type":"分隊","address":"金門縣金寧鄉頂林路315號","lon":118.32461,"lat":24.46263,"elev":9},{"name":"金門縣消防局烈嶼消防分隊","type":"分隊","address":"金門縣烈嶼鄉后井76號","lon":118.24755,"lat":24.42886,"elev":9},{"name":"金門縣消防局第二大隊","type":"大隊","address":"金門縣金湖鎮士校路2號","lon":118.42528,"lat":24.44393,"elev":22},{"name":"金門縣消防局金湖消防分隊","type":"分隊","address":"金門縣金湖鎮士校路2號","lon":118.42528,"lat":24.44393,"elev":22},{"name":"金門縣消防局金沙消防分隊","type":"分隊","address":"金門縣金沙鎮沙美135號","lon":118.41442,"lat":24.49079,"elev":15},{"name":"澎湖縣消防局","type":"大隊","address":"澎湖縣馬公市重光里四維路320號","lon":119.57375,"lat":23.57839,"elev":15},{"name":"澎湖縣消防局馬公分隊","type":"分隊","address":"澎湖縣馬公市四維路320號","lon":119.57375,"lat":23.57839,"elev":15},{"name":"澎湖縣消防局馬公南分隊","type":"分隊","address":"澎湖縣馬公市鎖港里1482號","lon":119.60295,"lat":23.53062,"elev":10},{"name":"澎湖縣消防局湖西分隊","type":"分隊","address":"澎湖縣湖西鄉林投村123號","lon":119.64702,"lat":23.56692,"elev":9},{"name":"澎湖縣消防局白沙分隊","type":"分隊","address":"澎湖縣白沙鄉赤崁村9-26號","lon":119.5992,"lat":23.66718,"elev":12},{"name":"澎湖縣消防局西嶼分隊","type":"分隊","address":"澎湖縣西嶼鄉池東村211-5號","lon":119.51222,"lat":23.60171,"elev":30},{"name":"澎湖縣消防局桶盤分隊","type":"分隊","address":"澎湖縣馬公市桶盤里7-6號","lon":119.51875,"lat":23.51068,"elev":19},{"name":"澎湖縣消防局虎井分隊","type":"分隊","address":"澎湖縣馬公市虎井里71號","lon":119.52672,"lat":23.49083,"elev":49},{"name":"澎湖縣消防局員貝分隊","type":"分隊","address":"澎湖縣白沙鄉員貝村28-2號","lon":119.63325,"lat":23.64861,"elev":14},{"name":"澎湖縣消防局吉貝分隊","type":"分隊","address":"澎湖縣白沙鄉吉貝村185-5號","lon":119.61224,"lat":23.74665,"elev":11},{"name":"澎湖縣消防局大倉分隊","type":"分隊","address":"澎湖縣白沙鄉大倉村65號","lon":119.56804,"lat":23.61909,"elev":5},{"name":"澎湖縣消防局鳥嶼分隊","type":"分隊","address":"澎湖縣白沙鄉鳥嶼村9-5號","lon":119.66368,"lat":23.6638,"elev":0},{"name":"澎湖縣消防局望安分隊","type":"分隊","address":"澎湖縣望安鄉東垵村1-1號","lon":119.50045,"lat":23.35638,"elev":11},{"name":"澎湖縣消防局七美分隊","type":"分隊","address":"澎湖縣七美鄉南港村南滬39號","lon":119.42519,"lat":23.196,"elev":21},{"name":"澎湖縣消防局將軍分隊","type":"分隊","address":"澎湖縣望安鄉將軍村166號","lon":119.53252,"lat":23.36826,"elev":8},{"name":"澎湖縣消防局花嶼分隊","type":"分隊","address":"澎湖縣望安鄉花嶼村八鄰花嶼109-2號","lon":119.3225,"lat":23.40361,"elev":33},{"name":"連江縣消防局","type":"大隊","address":"連江縣南竿鄉清水村84-1號","lon":119.93792,"lat":26.14778,"elev":67},{"name":"連江縣消防局南竿分隊","type":"分隊","address":"連江縣南竿鄉清水村84-1號","lon":119.93792,"lat":26.14778,"elev":67},{"name":"連江縣消防局介壽分隊","type":"分隊","address":"連江縣南竿鄉介壽村156-8號","lon":119.95526,"lat":26.15452,"elev":46},{"name":"連江縣消防局北竿分隊","type":"分隊","address":"連江縣北竿鄉塘岐村274-2號","lon":119.99429,"lat":26.22448,"elev":130},{"name":"連江縣消防局東引分隊","type":"分隊","address":"連江縣東引鄉中柳村121-1號","lon":120.4804,"lat":26.37472,"elev":16},{"name":"連江縣消防局莒光分隊","type":"分隊","address":"連江縣莒光鄉田澳村79號","lon":119.97233,"lat":25.96048,"elev":4},{"name":"連江縣消防局東莒分隊","type":"分隊","address":"連江縣莒光鄉大坪村79-1號","lon":119.97261,"lat":25.96065,"elev":4}]}}}