{"meta":{"generated":"2026-07-09T07:10:59+00:00","featuresTotal":2015,"partsRaw":68696,"chainsStitched":61606,"tjunctionChecked":66807,"tjunctionSnapped":24329,"joinPolysUsed":13111,"joinPolysSkippedEmpty":151,"joinSamplePoints":151585,"chainsMatched":20757,"chainsNamed":19648,"joinFallbackMatched":5056,"joinHitRatePct":33.7,"keptByType":{"1":5606,"2":1837,"3":739,"4":484,"5":12091,"6":12368},"keptMatched":20757,"keptSystemOnly":12368,"chainsKept":33125,"vertexRaw":513832,"vertexSimplified":84386,"labelCount":262,"snapPrecDeg":0.0001,"tjunctionTolM":20.0,"joinTolDeg":0.00025,"joinFallbackTolDeg":0.0012,"systemMinKm":10.0,"labelMinKm":10.0,"tolDeg":0.0006,"tileFallback":{"z13":262,"z12":0,"sea":0}},"labels":[{"name":"大坑溪","type":5,"lon":121.30421,"lat":25.04256,"elev":80},{"name":"南崁溪","type":2,"lon":121.29272,"lat":25.03483,"elev":67},{"name":"雙溪口溪","type":5,"lon":121.18597,"lat":25.03782,"elev":48},{"name":"茄苳溪","type":2,"lon":121.28528,"lat":24.99112,"elev":98},{"name":"茄苳溪","type":2,"lon":121.27511,"lat":25.035,"elev":66},{"name":"大堀溪","type":3,"lon":121.10942,"lat":25.03104,"elev":31},{"name":"曾文水庫","type":2,"lon":120.54794,"lat":23.26122,"elev":227},{"name":"石門水庫","type":2,"lon":121.30846,"lat":24.80101,"elev":336},{"name":"南港溪(南烘溪)","type":5,"lon":120.88202,"lat":23.9832,"elev":311},{"name":"楠梓仙溪","type":5,"lon":120.60117,"lat":23.04954,"elev":368},{"name":"楠梓仙溪","type":5,"lon":120.68903,"lat":23.26021,"elev":784},{"name":"馬家溪","type":5,"lon":121.46107,"lat":23.33988,"elev":40},{"name":"東埔蚋溪","type":5,"lon":120.74052,"lat":23.75351,"elev":251},{"name":"基隆河","type":1,"lon":121.76245,"lat":25.09871,"elev":34},{"name":"基隆河","type":1,"lon":121.78938,"lat":25.03145,"elev":353},{"name":"淡水河","type":1,"lon":121.4581,"lat":25.15059,"elev":1},{"name":"八連溪","type":5,"lon":121.50886,"lat":25.24409,"elev":100},{"name":"清水溪","type":1,"lon":120.72308,"lat":23.61749,"elev":1302},{"name":"清水溪","type":1,"lon":121.42979,"lat":23.78912,"elev":203},{"name":"頭前溪","type":1,"lon":121.08038,"lat":24.74836,"elev":102},{"name":"頭前溪","type":1,"lon":121.01852,"lat":24.807,"elev":28},{"name":"北港溪","type":1,"lon":120.8849,"lat":24.0461,"elev":323},{"name":"北港溪","type":1,"lon":120.93684,"lat":24.06291,"elev":366},{"name":"北溪","type":5,"lon":121.27743,"lat":23.02913,"elev":96},{"name":"北溪","type":5,"lon":121.29356,"lat":23.06491,"elev":157},{"name":"濁水溪","type":1,"lon":120.94795,"lat":23.74821,"elev":1221},{"name":"濁水溪","type":1,"lon":120.74848,"lat":23.82977,"elev":190},{"name":"鳳山溪","type":2,"lon":121.10538,"lat":24.81657,"elev":64},{"name":"鳳山溪","type":2,"lon":121.16342,"lat":24.79246,"elev":112},{"name":"公司田溪","type":5,"lon":121.45456,"lat":25.1989,"elev":80},{"name":"貓羅溪","type":1,"lon":120.63554,"lat":24.01575,"elev":55},{"name":"頭汴坑溪(南溪)","type":5,"lon":120.76667,"lat":24.10892,"elev":159},{"name":"烏溪","type":1,"lon":120.79632,"lat":23.98633,"elev":201},{"name":"高屏溪","type":1,"lon":120.46525,"lat":22.69986,"elev":22},{"name":"乾溪","type":1,"lon":120.72275,"lat":24.04895,"elev":143},{"name":"旱溪","type":1,"lon":120.70707,"lat":24.1898,"elev":146},{"name":"牡丹溪","type":3,"lon":120.84879,"lat":22.18324,"elev":276},{"name":"崁頂溪","type":5,"lon":121.13583,"lat":23.04378,"elev":404},{"name":"雙溪","type":2,"lon":121.02724,"lat":24.73371,"elev":74},{"name":"雙溪","type":2,"lon":121.87129,"lat":25.0315,"elev":20},{"name":"八掌溪","type":1,"lon":120.4188,"lat":23.43433,"elev":24},{"name":"八掌溪","type":1,"lon":120.61615,"lat":23.44915,"elev":287},{"name":"牛稠溪","type":1,"lon":120.39183,"lat":23.51602,"elev":19},{"name":"牛稠溪","type":1,"lon":120.54601,"lat":23.52249,"elev":114},{"name":"東港溪","type":1,"lon":120.57379,"lat":22.59531,"elev":18},{"name":"東港溪","type":1,"lon":120.59737,"lat":22.61828,"elev":27},{"name":"大安溪","type":1,"lon":120.83789,"lat":24.28877,"elev":374},{"name":"大安溪","type":1,"lon":120.91956,"lat":24.33886,"elev":566},{"name":"大甲溪","type":1,"lon":120.78915,"lat":24.27847,"elev":289},{"name":"大甲溪","type":1,"lon":120.89625,"lat":24.16569,"elev":511},{"name":"率芒溪","type":2,"lon":120.65279,"lat":22.37261,"elev":83},{"name":"萬安溪","type":5,"lon":121.20587,"lat":23.06034,"elev":240},{"name":"萬安溪","type":5,"lon":121.2123,"lat":23.07476,"elev":251},{"name":"安朔溪","type":3,"lon":120.83665,"lat":22.29344,"elev":84},{"name":"安朔溪","type":3,"lon":120.8607,"lat":22.28248,"elev":40},{"name":"朝庸溪","type":3,"lon":120.87536,"lat":22.34338,"elev":51},{"name":"鹽港溪","type":2,"lon":120.91639,"lat":24.72762,"elev":10},{"name":"新街溪","type":4,"lon":121.23063,"lat":24.96321,"elev":125},{"name":"南勢溪","type":1,"lon":120.78644,"lat":24.59393,"elev":15},{"name":"南勢溪","type":1,"lon":120.79897,"lat":24.58824,"elev":41},{"name":"荖濃溪","type":1,"lon":120.65808,"lat":23.05897,"elev":396},{"name":"荖濃溪","type":1,"lon":120.79369,"lat":23.25802,"elev":1218},{"name":"隘寮溪","type":1,"lon":120.72801,"lat":23.95942,"elev":239},{"name":"客雅溪","type":4,"lon":120.94937,"lat":24.79853,"elev":19},{"name":"西湖溪","type":2,"lon":120.75652,"lat":24.52972,"elev":59},{"name":"西湖溪","type":2,"lon":120.78014,"lat":24.46705,"elev":178},{"name":"洽溪","type":5,"lon":121.19731,"lat":24.99741,"elev":85},{"name":"後龍溪","type":1,"lon":120.84251,"lat":24.46487,"elev":172},{"name":"富源溪(馬蘭鉤溪)","type":5,"lon":121.37205,"lat":23.53082,"elev":114},{"name":"大東河","type":5,"lon":121.01762,"lat":24.59706,"elev":266},{"name":"翡翠水庫","type":2,"lon":121.59438,"lat":24.91647,"elev":168},{"name":"典寶溪","type":4,"lon":120.3467,"lat":22.74264,"elev":19},{"name":"中港溪","type":2,"lon":120.95553,"lat":24.65869,"elev":71},{"name":"急水溪","type":1,"lon":120.27024,"lat":23.2611,"elev":0},{"name":"秀姑巒溪","type":1,"lon":121.34673,"lat":23.34485,"elev":129},{"name":"秀姑巒溪","type":1,"lon":121.40682,"lat":23.47897,"elev":96},{"name":"峨眉溪","type":5,"lon":120.99902,"lat":24.69295,"elev":67},{"name":"獅潭川","type":5,"lon":120.92887,"lat":24.55357,"elev":154},{"name":"鹿寮溪","type":1,"lon":121.07656,"lat":22.9941,"elev":1248},{"name":"鹿寮溪","type":1,"lon":121.11328,"lat":22.972,"elev":242},{"name":"灣潭溪","type":5,"lon":121.80351,"lat":24.92961,"elev":575},{"name":"南港溪","type":1,"lon":120.87662,"lat":24.64191,"elev":7},{"name":"大漢溪","type":1,"lon":121.27627,"lat":24.8706,"elev":86},{"name":"大漢溪","type":1,"lon":121.38968,"lat":24.76991,"elev":822},{"name":"曾文溪","type":1,"lon":120.45632,"lat":23.14503,"elev":52},{"name":"曾文溪","type":1,"lon":120.52423,"lat":23.25554,"elev":356},{"name":"汶水溪","type":5,"lon":120.94544,"lat":24.46814,"elev":436},{"name":"菜寮溪","type":5,"lon":120.41423,"lat":23.02247,"elev":36},{"name":"菜寮溪","type":5,"lon":120.44498,"lat":23.041,"elev":39},{"name":"和社溪","type":5,"lon":120.86393,"lat":23.55474,"elev":948},{"name":"丁子漏溪","type":5,"lon":121.49639,"lat":23.61016,"elev":130},{"name":"二仁溪(二層行溪)","type":5,"lon":120.40496,"lat":22.8939,"elev":54},{"name":"二仁溪(二層行溪)","type":5,"lon":120.44716,"lat":22.95374,"elev":83},{"name":"七佳溪","type":5,"lon":120.72865,"lat":22.46174,"elev":429},{"name":"眉溪","type":1,"lon":121.01735,"lat":23.98757,"elev":526},{"name":"大坪溪","type":5,"lon":120.38386,"lat":22.92421,"elev":24},{"name":"水流東溪","type":5,"lon":120.84954,"lat":24.08542,"elev":470},{"name":"松柏坑溪","type":5,"lon":121.28048,"lat":23.0636,"elev":214},{"name":"陳有蘭溪","type":1,"lon":120.86789,"lat":23.67926,"elev":523},{"name":"陳有蘭溪","type":1,"lon":120.90545,"lat":23.61022,"elev":864},{"name":"蘭陽溪","type":1,"lon":121.46997,"lat":24.57306,"elev":424},{"name":"蘭陽溪","type":1,"lon":121.58375,"lat":24.67155,"elev":258},{"name":"南河","type":5,"lon":120.97838,"lat":24.55613,"elev":351},{"name":"磺溪","type":2,"lon":121.60259,"lat":25.21856,"elev":50},{"name":"立霧溪(塔次基里溪)","type":5,"lon":121.39334,"lat":24.19022,"elev":1764},{"name":"立霧溪(塔次基里溪)","type":5,"lon":121.47398,"lat":24.17387,"elev":865},{"name":"三疊溪","type":1,"lon":120.44494,"lat":23.59292,"elev":28},{"name":"後堀溪","type":1,"lon":120.52996,"lat":23.08823,"elev":109},{"name":"後堀溪","type":1,"lon":120.58918,"lat":23.15986,"elev":206},{"name":"下角港溪","type":5,"lon":121.24466,"lat":22.98208,"elev":147},{"name":"南溪","type":5,"lon":121.26004,"lat":22.97774,"elev":100},{"name":"粗坑溪","type":5,"lon":120.8333,"lat":23.8726,"elev":553},{"name":"霄裡溪","type":2,"lon":121.14678,"lat":24.83801,"elev":224},{"name":"大湖溪","type":1,"lon":120.93122,"lat":24.40449,"elev":542},{"name":"上坪溪","type":1,"lon":121.10235,"lat":24.68198,"elev":183},{"name":"卓棍溪","type":5,"lon":120.89756,"lat":23.75743,"elev":469},{"name":"老莊溪","type":5,"lon":120.82961,"lat":24.31346,"elev":331},{"name":"大竹溪","type":3,"lon":120.83647,"lat":22.447,"elev":256},{"name":"大竹溪","type":3,"lon":120.89401,"lat":22.45624,"elev":99},{"name":"水長流溪","type":5,"lon":120.88592,"lat":24.09224,"elev":356},{"name":"新寮溪","type":5,"lon":121.73971,"lat":24.60402,"elev":300},{"name":"姑子崙溪","type":5,"lon":120.83487,"lat":22.38767,"elev":213},{"name":"大武溪(茶茶牙賴溪)","type":5,"lon":120.84209,"lat":22.36554,"elev":122},{"name":"景美溪","type":1,"lon":121.61731,"lat":24.99524,"elev":39},{"name":"大豹溪","type":5,"lon":121.41591,"lat":24.85495,"elev":462},{"name":"大南溪","type":5,"lon":120.96723,"lat":22.72766,"elev":394},{"name":"大南溪","type":5,"lon":120.99555,"lat":22.75013,"elev":368},{"name":"利嘉溪","type":2,"lon":121.08485,"lat":22.73649,"elev":40},{"name":"利嘉溪","type":2,"lon":121.09534,"lat":22.72185,"elev":20},{"name":"大崙溪","type":5,"lon":121.06886,"lat":23.10121,"elev":934},{"name":"大崙溪","type":5,"lon":121.11126,"lat":23.12216,"elev":391},{"name":"新武呂溪","type":1,"lon":121.02101,"lat":23.16834,"elev":832},{"name":"新武呂溪","type":1,"lon":121.09888,"lat":23.16286,"elev":898},{"name":"大梅溪","type":5,"lon":120.75559,"lat":22.13715,"elev":164},{"name":"四重溪","type":2,"lon":120.75828,"lat":22.09631,"elev":44},{"name":"大湖口溪","type":5,"lon":120.57425,"lat":23.60497,"elev":183},{"name":"內寮溪","type":5,"lon":120.56227,"lat":22.95817,"elev":204},{"name":"新店溪","type":1,"lon":121.53681,"lat":24.93379,"elev":43},{"name":"阿眉溪","type":5,"lon":121.40262,"lat":23.40862,"elev":649},{"name":"丹大溪","type":5,"lon":121.13226,"lat":23.73655,"elev":1555},{"name":"丹大溪","type":5,"lon":121.16962,"lat":23.69144,"elev":1434},{"name":"南坑","type":5,"lon":120.7826,"lat":24.02749,"elev":506},{"name":"金瓜寮溪","type":5,"lon":121.6741,"lat":24.91006,"elev":311},{"name":"六重溪","type":5,"lon":120.45016,"lat":23.32296,"elev":46},{"name":"太平坑","type":5,"lon":121.07152,"lat":22.78433,"elev":104},{"name":"太平溪","type":2,"lon":121.05621,"lat":22.81028,"elev":231},{"name":"太平溪","type":2,"lon":121.10806,"lat":22.7818,"elev":46},{"name":"太麻里溪","type":3,"lon":120.86468,"lat":22.61603,"elev":836},{"name":"太麻里溪","type":3,"lon":120.92329,"lat":22.57574,"elev":379},{"name":"斗里斗里溪","type":5,"lon":120.84492,"lat":22.60913,"elev":503},{"name":"馬奴爾溪","type":5,"lon":120.91471,"lat":22.58976,"elev":188},{"name":"木瓜溪","type":1,"lon":121.53783,"lat":23.93198,"elev":74},{"name":"木瓜溪","type":1,"lon":121.49966,"lat":23.97349,"elev":235},{"name":"知本溪","type":2,"lon":120.91988,"lat":22.67034,"elev":481},{"name":"知本溪","type":2,"lon":120.98158,"lat":22.68132,"elev":159},{"name":"卑南溪","type":1,"lon":121.17401,"lat":22.92148,"elev":260},{"name":"卑南溪","type":1,"lon":121.17123,"lat":23.01565,"elev":198},{"name":"金崙溪","type":3,"lon":120.89966,"lat":22.50816,"elev":379},{"name":"金崙溪","type":3,"lon":120.94004,"lat":22.5326,"elev":66},{"name":"隘寮北溪","type":5,"lon":120.75245,"lat":22.78268,"elev":1044},{"name":"隘寮北溪","type":5,"lon":120.80516,"lat":22.78731,"elev":859},{"name":"濁口溪","type":5,"lon":120.68768,"lat":22.92904,"elev":418},{"name":"萬朝溪","type":5,"lon":121.21803,"lat":23.14045,"elev":269},{"name":"水社水尾溪","type":5,"lon":120.88089,"lat":23.89119,"elev":507},{"name":"水里溪","type":5,"lon":120.87105,"lat":23.85341,"elev":402},{"name":"北太麻里溪","type":5,"lon":121.00008,"lat":22.63947,"elev":131},{"name":"水母丁溪","type":5,"lon":121.43335,"lat":23.40556,"elev":235},{"name":"水母丁溪","type":5,"lon":121.45014,"lat":23.41099,"elev":151},{"name":"南湖溪","type":4,"lon":120.86652,"lat":24.40908,"elev":264},{"name":"紅葉溪","type":1,"lon":121.32687,"lat":23.49178,"elev":219},{"name":"溝坪溪","type":5,"lon":120.49863,"lat":22.99214,"elev":94},{"name":"牛寮溪","type":5,"lon":120.42121,"lat":22.861,"elev":63},{"name":"新隆河(老雞隆河)","type":5,"lon":120.8121,"lat":24.43334,"elev":187},{"name":"加走寮溪","type":5,"lon":120.7798,"lat":23.63988,"elev":1337},{"name":"加拉板溪","type":5,"lon":120.83009,"lat":22.33953,"elev":178},{"name":"加拿典溪","type":5,"lon":121.1273,"lat":22.9954,"elev":301},{"name":"獅子頭溪","type":5,"lon":120.51935,"lat":23.52664,"elev":53},{"name":"加鹿溪","type":5,"lon":121.14026,"lat":23.00399,"elev":251},{"name":"北勢溪","type":4,"lon":121.69431,"lat":24.93465,"elev":164},{"name":"北勢溪","type":4,"lon":121.75314,"lat":24.95361,"elev":253},{"name":"種瓜坑","type":5,"lon":120.89208,"lat":23.95224,"elev":444},{"name":"北山坑溪(木履欄溪)","type":5,"lon":120.86641,"lat":23.94703,"elev":377},{"name":"北坑","type":5,"lon":120.77932,"lat":24.15323,"elev":329},{"name":"林口溪","type":3,"lon":121.33637,"lat":25.09605,"elev":96},{"name":"北絲鬮溪","type":5,"lon":121.00874,"lat":22.88374,"elev":449},{"name":"北絲鬮溪","type":5,"lon":121.05072,"lat":22.89317,"elev":731},{"name":"法落安溪","type":5,"lon":121.26948,"lat":23.00813,"elev":121},{"name":"卡社溪","type":5,"lon":121.18523,"lat":23.80607,"elev":1949},{"name":"永定溪","type":5,"lon":121.67788,"lat":25.01041,"elev":101},{"name":"和平北溪(大濁水溪北溪)","type":5,"lon":121.60099,"lat":24.39257,"elev":749},{"name":"平林溪","type":5,"lon":120.77213,"lat":23.88327,"elev":166},{"name":"平林溪","type":5,"lon":120.82496,"lat":23.9231,"elev":542},{"name":"老街溪","type":2,"lon":121.20506,"lat":25.01611,"elev":73},{"name":"沙連溪","type":5,"lon":120.81685,"lat":24.28344,"elev":311},{"name":"萬大溪","type":5,"lon":121.17623,"lat":23.95206,"elev":1157},{"name":"瓦魯斯溪","type":5,"lon":120.6548,"lat":22.55493,"elev":174},{"name":"白水溪","type":5,"lon":120.48216,"lat":23.34509,"elev":123},{"name":"石門溪","type":3,"lon":121.40483,"lat":23.28206,"elev":90},{"name":"澐水溪","type":5,"lon":120.50367,"lat":23.42009,"elev":75},{"name":"石鼓盤溪","type":5,"lon":120.77806,"lat":23.57574,"elev":1219},{"name":"清水溝溪","type":5,"lon":120.78809,"lat":23.77003,"elev":291},{"name":"南澳南溪","type":5,"lon":121.7329,"lat":24.40615,"elev":560},{"name":"合歡溪","type":5,"lon":121.24535,"lat":24.21126,"elev":2034},{"name":"赤蘭溪","type":1,"lon":120.49486,"lat":23.4374,"elev":63},{"name":"次高溪","type":5,"lon":121.15187,"lat":24.42042,"elev":1413},{"name":"伽溪","type":5,"lon":121.17048,"lat":22.82894,"elev":65},{"name":"和平溪(大濁水溪)","type":5,"lon":121.70242,"lat":24.30258,"elev":786},{"name":"坑子溪","type":5,"lon":121.31043,"lat":25.09322,"elev":100},{"name":"里仁溪(汝仍溪)","type":5,"lon":120.78809,"lat":22.16462,"elev":180},{"name":"嘉武溪","type":5,"lon":121.19063,"lat":23.02712,"elev":252},{"name":"紅石溪","type":5,"lon":121.17054,"lat":23.0639,"elev":245},{"name":"鹿野溪","type":1,"lon":121.1141,"lat":22.8849,"elev":131},{"name":"鹿野溪","type":1,"lon":121.12999,"lat":22.8932,"elev":114},{"name":"怡堪溪(知亞干溪)","type":5,"lon":121.37548,"lat":23.84105,"elev":419},{"name":"枋山溪","type":2,"lon":120.73663,"lat":22.26896,"elev":193},{"name":"拉庫音溪","type":5,"lon":120.98036,"lat":23.31371,"elev":1827},{"name":"抽藤坑","type":5,"lon":120.82935,"lat":24.15067,"elev":591},{"name":"萬里溪(萬里橋溪)","type":5,"lon":121.3423,"lat":23.77543,"elev":487},{"name":"萬里溪(萬里橋溪)","type":5,"lon":121.40807,"lat":23.72085,"elev":156},{"name":"東勢坑溪","type":5,"lon":120.71494,"lat":23.87866,"elev":105},{"name":"郡大溪","type":5,"lon":121.01182,"lat":23.67481,"elev":934},{"name":"郡大溪","type":5,"lon":121.03558,"lat":23.62689,"elev":1449},{"name":"馬達吉達溪","type":5,"lon":121.24976,"lat":23.00066,"elev":174},{"name":"油羅溪","type":1,"lon":121.15485,"lat":24.70676,"elev":195},{"name":"花蓮溪","type":1,"lon":121.52637,"lat":23.80607,"elev":73},{"name":"花蓮溪","type":1,"lon":121.56671,"lat":23.88063,"elev":27},{"name":"阿里山溪","type":5,"lon":121.24344,"lat":23.17019,"elev":229},{"name":"保力溪","type":2,"lon":120.74657,"lat":22.04123,"elev":39},{"name":"南澳北溪","type":2,"lon":121.65981,"lat":24.55122,"elev":794},{"name":"南澳北溪","type":2,"lon":121.72841,"lat":24.51831,"elev":357},{"name":"南掃別溪","type":5,"lon":121.40759,"lat":23.29746,"elev":110},{"name":"南勢湖溪","type":5,"lon":120.67139,"lat":22.31244,"elev":125},{"name":"泰源南溪","type":5,"lon":121.21024,"lat":22.9383,"elev":242},{"name":"後寮溪","type":5,"lon":120.78263,"lat":23.86478,"elev":195},{"name":"柑仔山溪","type":5,"lon":121.37318,"lat":23.1444,"elev":116},{"name":"砂卡礑溪","type":5,"lon":121.63516,"lat":24.21606,"elev":666},{"name":"草山溪","type":5,"lon":120.43481,"lat":22.99349,"elev":54},{"name":"美崙溪(娑婆礑溪)","type":5,"lon":121.55996,"lat":24.00008,"elev":66},{"name":"都威溪","type":3,"lon":121.37714,"lat":23.18753,"elev":242},{"name":"泰崗溪","type":5,"lon":121.33154,"lat":24.58541,"elev":1483},{"name":"草山溪(沙美箕溪)","type":5,"lon":120.61634,"lat":23.35424,"elev":379},{"name":"馬武溪","type":3,"lon":121.29543,"lat":22.98662,"elev":33},{"name":"樟平溪","type":5,"lon":120.79154,"lat":23.94785,"elev":258},{"name":"桶後溪","type":5,"lon":121.66258,"lat":24.83425,"elev":614},{"name":"虌溪","type":5,"lon":121.26955,"lat":23.14183,"elev":281},{"name":"許縣溪","type":5,"lon":120.31021,"lat":22.97102,"elev":17},{"name":"鹿鳴溪","type":5,"lon":121.09054,"lat":22.91133,"elev":208},{"name":"鹿寮坑","type":5,"lon":120.8685,"lat":23.90124,"elev":599},{"name":"龜重溪","type":5,"lon":120.4434,"lat":23.2987,"elev":66},{"name":"富家溪","type":3,"lon":121.37938,"lat":23.13197,"elev":60},{"name":"港口溪","type":2,"lon":120.82648,"lat":22.0375,"elev":48},{"name":"港口溪","type":2,"lon":120.83737,"lat":22.01292,"elev":30},{"name":"番社坑溪","type":5,"lon":121.67758,"lat":24.61079,"elev":205},{"name":"新港溪","type":3,"lon":121.36602,"lat":23.11709,"elev":109},{"name":"楓港溪","type":2,"lon":120.73872,"lat":22.21049,"elev":62},{"name":"楓港溪","type":2,"lon":120.82409,"lat":22.22811,"elev":231},{"name":"瑪鍊溪","type":3,"lon":121.65796,"lat":25.16607,"elev":59},{"name":"碧綠溪","type":5,"lon":121.31129,"lat":24.21845,"elev":2105},{"name":"樂樂溪(拉庫拉庫溪)","type":5,"lon":121.22933,"lat":23.32417,"elev":568},{"name":"貓公溪(八里灣溪)","type":5,"lon":121.49271,"lat":23.57212,"elev":102},{"name":"獨座溪","type":5,"lon":120.61174,"lat":23.42816,"elev":326},{"name":"豐坪溪(太平溪)","type":5,"lon":121.26907,"lat":23.44431,"elev":416}]}